id,stop_id,stop_code,stop_name,zone_id,latitude,longitude,junction_id,junction_dst
11542,0,61522,Southbound Howe St @ Davie St,BUS ZN,49.277974,-123.127034,2213,23.217393314000574
11541,1,51114,Southbound West Blvd @ W 57 Ave,BUS ZN,49.219164,-123.150433,1272,35.239277413378
275,5,50272,Northbound Blanca St @ W 10 Ave,BUS ZN,49.264289,-123.215067,14,42.23588949433742
276,6,50273,Blanca Loop @ Bay 1,BUS ZN,49.265243,-123.21585,15,69.80379828325039
277,7,50274,Eastbound W 10 Ave @ Blanca St,BUS ZN,49.263836,-123.214641,14,41.30693426250888
278,8,50275,Eastbound W 10 Ave @ Tolmie St,BUS ZN,49.26381,-123.211737,35,28.883828006564087
279,9,50276,Eastbound W 10 Ave @ Sasamat St,BUS ZN,49.263764,-123.208525,58,41.11453804232737
2146,10,52126,Eastbound SW Marine Dr @ Heather St,BUS ZN,49.207179,-123.123861,2314,26.782595685893263
98,14,50098,Southbound Burrard St @ Davie St,BUS ZN,49.278914,-123.12964,2113,38.75690566473358
91,15,50091,Westbound W Pender St @ Carrall St,BUS ZN,49.280707,-123.104998,3036,14.38575571397954
93,16,50093,Westbound W Pender St @ Abbott St,BUS ZN,49.28129,-123.108213,2913,17.630677093883804
95,17,50095,Westbound W Pender St @ Seymour St,BUS ZN,49.283818,-123.113429,2727,36.81594446500119
97,18,50097,Westbound W Pender St @ Howe St,BUS ZN,49.285523,-123.116055,2663,30.458979071916662
96,19,50096,Westbound W Pender St @ Granville St,BUS ZN,49.284575,-123.114596,2703,19.195587231867957
873,22,50866,Southbound Granville St @ SW Marine Dr,BUS ZN,49.205733,-123.140764,1627,13.413779508936345
870,23,50863,Southbound Granville St @ W 65 Ave,BUS ZN,49.211828,-123.140547,1639,48.29721959493849
8019,24,57944,Waterfront Station Eastbound,WCE1Z,49.286053,-123.11158,2796,85.48329024585038
393,26,50389,Eastbound W 4th Ave @ Collingwood St,BUS ZN,49.268471,-123.181214,483,35.0407174804499
392,27,50388,Eastbound W 41 Ave @ Granville St,BUS ZN,49.234268,-123.140768,1590,47.93319424787554
390,28,50386,Eastbound W 41 Ave @ Adera St,BUS ZN,49.2343,-123.142893,1534,30.768764934056723
397,29,50393,Eastbound W 4th Ave @ Macdonald St,BUS ZN,49.268274,-123.167779,786,38.84909293546167
398,30,50394,Eastbound W 4th Ave @ Trafalgar St,BUS ZN,49.268236,-123.164123,897,28.827185137898844
11281,31,61372,King Edward Station @ Platform 1,ZN 1,49.249172,-123.115228,2674,23.88338433922133
11280,32,61371,King Edward Station @ Platform 2,ZN 1,49.249186,-123.115716,2674,32.497011422478174
11283,33,61374,Oakridge-41st Avenue Station @ Platform 1,ZN 1,49.233731,-123.116176,2641,21.4762963484904
11282,34,61373,Oakridge-41st Avenue Station @ Platform 2,ZN 1,49.233747,-123.116422,2641,29.28775004148245
11285,35,61376,Langara-49th Avenue Station @ Platform 1,ZN 1,49.225709,-123.116289,2627,46.45918219721801
11284,36,61375,Langara-49th Avenue Station @ Platform 2,ZN 1,49.225743,-123.116752,2627,45.275408819421706
11287,37,61378,Marine Drive Station @ Platform 1,ZN 1,49.209663,-123.116921,2607,54.459010618562935
11286,38,61377,Marine Drive Station @ Platform 2,ZN 1,49.209661,-123.117078,2607,53.2038990644723
179,41,50179,Northbound Main St @ E 2nd Ave,BUS ZN,49.269455,-123.100505,3242,34.96725666271519
178,42,50178,Northbound Main St @ E 5th Ave,BUS ZN,49.266719,-123.100662,3237,36.330742817670455
177,43,50177,Northbound Main St @ E 6th Ave,BUS ZN,49.265339,-123.100685,3236,21.031019617115838
176,44,50176,Northbound Main St @ E Broadway,BUS ZN,49.263233,-123.100792,3227,37.802200804940014
174,45,50174,Northbound Main St @ E 12 Ave,BUS ZN,49.260528,-123.100888,3215,39.01611214836482
173,46,59582,Northbound Main St @ E 14 Ave,BUS ZN,49.258782,-123.100989,3212,45.07947898985365
171,47,59835,Northbound Main St @ E 18 Ave,BUS ZN,49.255006,-123.100984,3221,24.160097763734058
170,48,59836,Northbound Main St @ E 20 Ave,BUS ZN,49.253226,-123.100763,3229,29.188389232115227
10399,49,59832,Southbound Howe St @ Dunsmuir St,BUS ZN,49.284576,-123.117067,2605,42.12255217061697
1985,50,51968,Eastbound W 49 Ave @ Alberta St,BUS ZN,49.225896,-123.112498,2750,33.427678537411545
12667,51,60402,Westbound E 41 Ave @ Victoria Dr,BUS ZN,49.232733,-123.066544,4685,27.966044374618203
12664,52,60399,Eastbound E 41 Ave @ Main St,BUS ZN,49.232982,-123.102441,3193,68.84895273427762
1760,53,51746,Northbound Cassiar Connector @ 100 Block,BUS ZN,49.283253,-123.031278,6254,44.88137040342568
692,54,50685,Southbound Nanaimo St @ E 17 Ave,BUS ZN,49.254756,-123.056762,5176,39.04543089151037
693,55,50686,Southbound Nanaimo St @ E 20 Ave,BUS ZN,49.252026,-123.056768,5173,38.01587811466805
1544,56,51532,Eastbound E 22 Ave @ Boyd Diversion,BUS ZN,49.250553,-123.043474,5760,40.02508847241902
1545,57,51533,Eastbound E 22 Ave @ Lillooet St,BUS ZN,49.250535,-123.038654,5907,29.72049601605776
1542,58,51530,Eastbound E 22 Ave @ Slocan St,BUS ZN,49.250567,-123.049111,5501,36.835167909780935
697,59,50690,Eastbound E 22 Ave @ Nanaimo St,BUS ZN,49.250547,-123.055999,5170,45.91467331847638
694,60,50687,Southbound Nanaimo St @ E 22 Ave,BUS ZN,49.250268,-123.056774,5170,41.682830473191984
695,61,50688,Nanaimo Station @ Bay 3,BUS ZN,49.248412,-123.055476,5316,79.62468932831408
11113,62,52095,Westbound W Broadway @ Macdonald St,BUS ZN,49.264156,-123.167544,794,45.74953257006045
699,63,50692,Southbound Slocan St @ E 29 Ave,BUS ZN,49.24424,-123.050004,5493,50.02157624918198
1549,64,51537,Eastbound Kincaid St @ Boundary Rd,BUS ZN,49.24878,-123.023043,6510,110.48261964122025
11563,66,58721,Southbound Burrard St @ Burnaby St,BUS ZN,49.278573,-123.130164,2077,23.069082922413617
366,67,50362,Southbound Dunbar St @ W 17 Ave,BUS ZN,49.257067,-123.185245,405,32.71085705888289
258,68,50256,Southbound Main St @ E 46 Ave,BUS ZN,49.228145,-123.101625,3191,36.34515275281588
365,69,50361,Southbound Dunbar St @ W 15 Ave,BUS ZN,49.258657,-123.184116,410,29.334207940819326
252,70,50250,Southbound Main St @ E 36 Ave,BUS ZN,49.23788,-123.101715,3186,31.04061371725379
250,71,50248,Southbound Main St @ E 30 Ave,BUS ZN,49.243003,-123.101498,3202,32.7700198396288
251,72,50249,Southbound Main St @ E 33 Ave,BUS ZN,49.240211,-123.101629,3196,33.784544426809106
256,73,59041,Southbound Main St @ E 41 Ave,BUS ZN,49.232735,-123.101636,3194,25.741903152364745
257,74,50255,Southbound Main St @ E 43 Ave,BUS ZN,49.230612,-123.101591,3198,33.52725943539768
255,75,50253,Eastbound E 41 Ave @ Main St,BUS ZN,49.232967,-123.101913,3193,32.02664469921886
12036,77,61917,Westbound W Pender St @ Howe St,BUS ZN,49.285131,-123.115432,2663,33.67992891256055
12034,78,61925,Waterfront Station,ZN 1,49.285687,-123.111773,2796,42.69067935770634
361,79,50357,Southbound Alma St @ W 10 Ave,BUS ZN,49.26367,-123.186028,355,24.54828008275056
10439,80,58762,Southbound Fraser St @ SE Marine Dr,BUS ZN,49.211303,-123.091221,3623,34.30138550810285
10180,81,59576,Northbound N Boundary Rd @ Eton St,BUS ZN,49.287718,-123.023214,6557,17.0102059782568
1159,82,51150,Eastbound Kingsway @ McKinnon St,BUS ZN,49.234792,-123.037515,5983,34.38229913433431
1158,83,51149,Eastbound Kingsway @ Rupert St,BUS ZN,49.235786,-123.041963,5786,29.729495030883356
1154,84,51145,Eastbound Kingsway @ Miller St,BUS ZN,49.246687,-123.06866,4613,9.709976278103891
1157,85,51148,Eastbound Kingsway @ Killarney St,BUS ZN,49.236159,-123.045333,5675,24.034976403218113
1156,86,51147,Eastbound Kingsway @ Earles St,BUS ZN,49.23728,-123.048397,5557,47.190500314488254
1151,87,51142,Eastbound Kingsway @ Knight St,BUS ZN,49.249736,-123.075484,4279,46.83242755117742
1150,88,51141,Eastbound Kingsway @ Clark Dr,BUS ZN,49.250834,-123.077633,4189,26.203615872481034
1153,89,51144,Eastbound Kingsway @ Perry St,BUS ZN,49.247719,-123.070924,4506,36.6186488642415
1152,90,51143,Eastbound Kingsway @ Dumfries St,BUS ZN,49.24866,-123.072988,4418,33.826742454148125
8035,91,57960,Waterfront Station Northbound,ZN 1,49.286063,-123.111306,2796,93.52944945336102
8034,92,57959,Waterfront Station Unload Only,WCE1Z,49.286116,-123.111512,2796,93.55711527648299
8039,93,57964,Waterfront Station @ Platform 2,ZN 1,49.285907,-123.111578,2796,69.94379540282657
8038,94,57963,Waterfront Station Southbound,ZN 1,49.286137,-123.111403,2796,98.28543037577612
12581,95,60342,Southbound Cambie St @ W Georgia St,BUS ZN,49.279676,-123.112876,2738,45.98412217998607
12585,96,50137,Eastbound W 41 Ave @ Cambie St,BUS ZN,49.233415,-123.115623,2641,42.46765866758725
10047,97,59393,Westbound Beach Ave @ Hornby St,BUS ZN,49.275543,-123.132974,1964,25.809743136752246
8139,99,58042,Kootenay Loop @ Bay 2,BUS ZN,49.281495,-123.026062,6457,50.497359749051476
151,100,50151,Northbound Main St @ E 49 Ave,BUS ZN,49.225975,-123.10147,3180,36.86933210694656
150,101,50150,Northbound Main St @ E 51 Ave,BUS ZN,49.223638,-123.101593,3178,15.267122016832413
152,102,59842,Northbound Main St @ E 46 Ave,BUS ZN,49.228719,-123.101386,3191,29.819937376996517
155,103,50155,Northbound Main St @ E 41 Ave,BUS ZN,49.233445,-123.101394,3189,20.444614098208557
154,104,50154,Northbound Main St @ E 43 Ave,BUS ZN,49.231454,-123.101306,3197,21.234536764592573
157,105,50157,Westbound W 41 Ave @ Ontario St,BUS ZN,49.233269,-123.106197,3003,42.480958912217886
158,106,50158,Westbound W 41 Ave @ Columbia St,BUS ZN,49.233442,-123.11122,2831,38.41312253097207
10374,107,60825,VCC-Clark Station @ Platform 2,ZN 1,49.265799,-123.079054,4134,35.27861614130522
10375,108,60824,VCC-Clark Station @ Platform 1,ZN 1,49.265873,-123.079049,4134,29.364258038992496
10371,109,59783,Northbound Boundary Rd @ E Kent Ave North,BUS ZN,49.203898,-123.023178,6560,16.347512556564155
10513,110,60014,Westbound Expo Blvd @ Nelson St,BUS ZN,49.274765,-123.116234,2658,22.281458229118048
690,111,50683,Southbound Nanaimo St @ E Broadway,BUS ZN,49.261831,-123.056764,5188,37.103535013707905
8860,112,58130,Rupert Station @ Bay 1,BUS ZN,49.260804,-123.033608,6134,120.67605405299567
818,113,50811,Southbound Oak St @ W 57 Ave,BUS ZN,49.218926,-123.128765,2141,33.28190021267934
819,114,50812,Southbound Oak St @ W 59 Ave,BUS ZN,49.216857,-123.129581,2105,36.33314355831238
811,115,50804,Eastbound W 41 Ave @ Oak St,BUS ZN,49.2338,-123.126888,2164,86.54585764313909
812,116,50805,Southbound Oak St @ W 41 Ave,BUS ZN,49.233541,-123.128231,2164,46.74171645113533
813,117,50806,Southbound Oak St @ W 43 Ave,BUS ZN,49.231779,-123.128278,2161,36.390287810156984
814,118,50807,Southbound Oak St @ W 46 Ave,BUS ZN,49.229046,-123.128376,2158,30.19538682017013
815,119,50808,Southbound Oak St @ W 49 Ave,BUS ZN,49.22616,-123.128478,2152,44.93313385465048
817,120,50810,Southbound Oak St @ W 54 Ave,BUS ZN,49.221231,-123.128635,2143,35.79765736940395
1701,121,51687,Northbound Rupert St @ Graveley St,BUS ZN,49.270822,-123.033606,6146,46.66066577538039
1703,122,51689,Northbound Rupert St @ William St,BUS ZN,49.274384,-123.03354,6153,29.05154171513031
1704,123,51690,Northbound Rupert St @ Parker St,BUS ZN,49.27613,-123.03352,6155,38.12611833363979
1706,124,51692,Eastbound Adanac St @ Skeena St,BUS ZN,49.277384,-123.029097,6351,56.699960355061
1708,125,51694,Northbound Boundary Rd @ Georgia St,BUS ZN,49.278725,-123.023311,6545,42.39427636357678
1709,126,51695,Kootenay Loop @ Bay 3,BUS ZN,49.281408,-123.026254,6457,52.819828115419746
3022,127,52991,Southbound Boundary Rd @ Pandora St,BUS ZN,49.282683,-123.023697,6551,31.933101367850618
3021,128,52990,Southbound Boundary Rd @ Dundas St,BUS ZN,49.284524,-123.023659,6553,28.574655577475653
3020,129,52989,Southbound N Boundary Rd @ Cambridge St,BUS ZN,49.286231,-123.023627,6556,53.691962461363225
343,130,50339,Southbound Oak St @ Devonshire Cres,BUS ZN,49.244095,-123.127861,2176,42.954889530497994
12050,131,61825,Northbound Clarendon St @ E 33 Ave,BUS ZN,49.23952,-123.055375,5265,26.122277950733263
234,133,50232,Southbound Main St @ National Ave,BUS ZN,49.274506,-123.100141,3275,48.59532694800156
235,134,50233,Main Street-Science World Station @ Bay 1,BUS ZN,49.273072,-123.100189,3271,35.86523070729175
236,135,50234,Southbound Main St @ Switchmen St,BUS ZN,49.270621,-123.100821,3245,21.899433987343986
230,136,50228,Eastbound E Cordova St @ Main St,BUS ZN,49.282229,-123.099988,3298,29.335660368978143
231,137,50229,Southbound Main St @ E Hastings St,BUS ZN,49.28081,-123.099812,3289,48.86478972181527
232,138,50230,Southbound Main St @ Keefer St,BUS ZN,49.279029,-123.099896,3285,46.97280080491882
1537,139,51525,Eastbound E King Edward Ave @ Knight St,BUS ZN,49.248429,-123.075675,4276,34.092040611927956
939,140,50931,Eastbound W Hastings St @ Homer St,BUS ZN,49.283054,-123.110546,2823,47.31424754666842
938,141,50930,Eastbound W Hastings St @ Seymour St,BUS ZN,49.284334,-123.112551,2765,42.63760633459267
932,142,50924,Westbound W Broadway @ Ash St,BUS ZN,49.26336,-123.118098,2593,45.81537935799637
10745,143,51967,Langara-49th Station @ Bay 3,BUS ZN,49.226003,-123.11584,2627,47.71249926509648
934,144,50926,Westbound W Broadway @ Willow St,BUS ZN,49.263433,-123.122318,2422,38.981845452363345
1754,145,51740,Northbound Boundary Rd @ Lougheed Hwy,BUS ZN,49.26604,-123.023373,6522,57.432588406196736
797,146,50790,Southbound Fraser St @ E 41 Ave,BUS ZN,49.232478,-123.090705,3668,46.869697874861764
796,147,50789,Southbound Fraser St @ E 39 Ave,BUS ZN,49.234521,-123.090651,3669,31.414602848736195
795,148,50788,Southbound Fraser St @ E 37 Ave,BUS ZN,49.236049,-123.090613,3670,41.41939123710645
794,149,50787,Southbound Fraser St @ E 35 Ave,BUS ZN,49.238045,-123.090514,3673,30.26300035625476
793,150,50786,Southbound Fraser St @ E 33 Ave,BUS ZN,49.239976,-123.090476,3674,37.587079677746594
792,151,58954,Southbound Fraser St @ E 31 Ave,BUS ZN,49.242261,-123.090417,3677,34.21720218436432
791,152,50784,Southbound Fraser St @ E 29 Ave,BUS ZN,49.244247,-123.090388,3679,35.79537182029678
790,153,50783,Southbound Fraser St @ E 27 Ave,BUS ZN,49.246305,-123.090308,3683,33.418751812715556
799,154,50792,Southbound Fraser St @ E 45 Ave,BUS ZN,49.228897,-123.090762,3665,32.25880478966208
798,155,50791,Southbound Fraser St @ E 43 Ave,BUS ZN,49.230719,-123.090713,3667,30.82332228447938
1139,156,51130,Eastbound E 41 Ave @ School Ave,BUS ZN,49.233197,-123.036985,5993,35.10835531479744
1138,157,51129,Eastbound E 41 Ave @ Kerr St,BUS ZN,49.232892,-123.039828,5881,28.84322822402389
1133,158,51124,Eastbound E 41 Ave @ Clarendon St,BUS ZN,49.232754,-123.054813,5266,41.84271984638626
1132,159,51123,Eastbound E 41 Ave @ Nanaimo St,BUS ZN,49.232788,-123.058373,5068,36.312694284977326
1131,160,51122,Eastbound E 41 Ave @ Gladstone St,BUS ZN,49.232817,-123.06167,4902,32.808603321927144
1130,161,51121,Eastbound E 41 Ave @ Victoria Dr,BUS ZN,49.232713,-123.06505,4767,34.40526053005585
1137,162,51128,Eastbound E 41 Ave @ Rupert St,BUS ZN,49.23288,-123.042556,5769,38.891377196669985
1136,163,51127,Eastbound E 41 Ave @ Killarney St,BUS ZN,49.232892,-123.045427,5660,35.65934397331751
1135,164,51126,Eastbound E 41 Ave @ Earles St,BUS ZN,49.232715,-123.04831,5564,33.41025417713855
1134,165,51125,Eastbound E 41 Ave @ Wales St,BUS ZN,49.232722,-123.051214,5453,32.907009781578196
689,167,50682,Westbound E Broadway @ Nanaimo St,BUS ZN,49.26234,-123.057336,5188,58.66476928848909
1573,168,51561,Southbound Nanaimo St @ E 28 Ave,BUS ZN,49.24547,-123.056785,5162,11.365401086225035
1574,171,51562,Southbound Nanaimo St @ Brock St,BUS ZN,49.243673,-123.056787,5158,11.53945776830562
10357,172,59751,Westbound W 6th Ave @ Alder Crossing,BUS ZN,49.266199,-123.132576,1993,38.11770007920549
10352,173,59761,Westbound E 2nd Ave @ Main St,BUS ZN,49.269283,-123.101217,3242,41.103277766415374
4884,178,54832,Southbound Howe St @ Nelson St,BUS ZN,49.279698,-123.124449,2350,39.86312817731224
10359,179,59754,Eastbound W 6th Ave @ Heather St,BUS ZN,49.265832,-123.120144,2516,28.35167315958718
12749,181,60517,Southbound Main St @ E Broadway,BUS ZN,49.26318,-123.101149,3227,33.717120545449724
12318,182,59889,Kootenay Loop @ Bay 1,BUS ZN,49.281403,-123.025625,6457,32.28428516937039
12744,183,60746,Westbound W 49 Ave @ Yew St,BUS ZN,49.227274,-123.159273,1026,36.29610917386432
832,184,50825,Northbound Fraser St @ E 52 Ave,BUS ZN,49.223033,-123.090707,3655,35.732062912993584
830,185,50823,Northbound Fraser St @ E 57 Ave,BUS ZN,49.218589,-123.090819,3643,38.6825276443307
831,186,50824,Northbound Fraser St @ E 54 Ave,BUS ZN,49.22126,-123.090756,3650,46.029800813691146
836,187,50829,Northbound Fraser St @ E 45 Ave,BUS ZN,49.229442,-123.090556,3665,30.178481992753195
837,188,50830,Northbound Fraser St @ E 43 Ave,BUS ZN,49.231265,-123.0905,3667,31.8944307264537
834,189,50827,Northbound Fraser St @ E 49 Ave,BUS ZN,49.225766,-123.090643,3659,34.3731100869416
839,190,50832,Northbound Fraser St @ E 39 Ave,BUS ZN,49.235102,-123.090364,3669,36.58782262374683
11623,191,61110,Southbound Slocan St @ Kingsway,BUS ZN,49.240272,-123.053886,5355,30.114164527136925
1728,193,51714,Southbound Rupert St @ E 22 Ave,BUS ZN,49.25033,-123.033942,6122,31.4301606041205
1726,195,51712,Southbound Rupert St @ E 18 Ave,BUS ZN,49.253698,-123.033945,6125,34.73020808763333
1727,196,51713,Southbound Rupert St @ E 20 Ave,BUS ZN,49.252011,-123.033936,6123,35.61212695131258
1724,197,51710,Southbound Rupert St @ Grandview Hwy,BUS ZN,49.257755,-123.033953,6131,45.60817837772426
1725,198,51711,Southbound Rupert St @ E 16 Ave,BUS ZN,49.255276,-123.03393,6128,34.13157865373888
1720,199,51706,Southbound Rupert St @ E 7th Ave,BUS ZN,49.263542,-123.033894,6136,32.40682179416069
1721,200,51707,Southbound Rupert St @ E Broadway,BUS ZN,49.262185,-123.03393,6134,35.96247166718654
1588,201,51576,Westbound W King Edward Ave @ Laurel St,BUS ZN,49.249302,-123.125107,2298,33.36199543428389
1589,202,51577,Westbound W King Edward Ave @ Oak St,BUS ZN,49.249375,-123.128078,2187,43.02830092242366
1582,203,51570,Westbound E King Edward Ave @ Prince Edward St,BUS ZN,49.248783,-123.097125,3414,8.881981842033188
1583,204,51571,Westbound E King Edward Ave @ Main St,BUS ZN,49.248868,-123.101632,3216,45.542161251953
1580,205,51568,Westbound E King Edward Ave @ Fraser St,BUS ZN,49.248724,-123.090591,3685,34.01600999880546
1581,206,51569,Westbound E King Edward Ave @ St. George St,BUS ZN,49.248752,-123.094411,3543,27.86027241146373
1586,207,51574,King Edward Station @ Bay 1,BUS ZN,49.249121,-123.116003,2674,46.94340798333895
1587,208,51575,Westbound W King Edward Ave @ Heather St,BUS ZN,49.249205,-123.120844,2479,38.51622334044136
1584,209,51572,Westbound W King Edward Ave @ Ontario St,BUS ZN,49.248922,-123.105388,3025,31.41564124973802
1585,210,51573,Westbound W King Edward Ave @ Columbia St,BUS ZN,49.249023,-123.110516,2853,38.02014070858944
460,211,50456,Northbound Oak St @ W King Edward Ave,BUS ZN,49.249632,-123.127357,2187,46.875527513439245
214,212,50213,Northbound Granville St @ W 14 Ave,BUS ZN,49.25921,-123.138595,1711,35.00312975220374
215,213,50214,Northbound Granville St @ W 12 Ave,BUS ZN,49.261157,-123.13852,1714,44.43972400398703
212,214,50211,Northbound Granville St @ Matthews Ave,BUS ZN,49.253467,-123.138804,1706,37.96930783348484
213,215,50212,Northbound Granville St @ W 16 Ave,BUS ZN,49.257367,-123.138663,1709,36.55976624954292
210,216,50209,Northbound Granville St @ W King Edward Ave,BUS ZN,49.250127,-123.138924,1702,78.49681443000249
211,217,50210,Northbound Granville St @ Balfour Ave,BUS ZN,49.252263,-123.138834,1705,39.822537698927206
218,218,50217,Northbound Granville St @ W 7th Ave,BUS ZN,49.265651,-123.138349,1724,35.63428850015848
12071,219,61930,Westbound Powell St @ Clark Dr,BUS ZN,49.283161,-123.076463,4257,43.08414902647889
12070,220,61933,Eastbound Cordova Diversion @ Hawks Ave,BUS ZN,49.282052,-123.086717,3817,8.233832263337376
11477,221,50611,Eastbound Robson St @ Bidwell St,BUS ZN,49.29023,-123.133644,1925,28.803307263242292
11475,222,50536,Southbound Granville St @ Drake St,BUS ZN,49.275854,-123.128375,2150,26.697659215277525
11473,223,51941,Northbound Burrard St @ W 3rd Ave,BUS ZN,49.269179,-123.145428,1458,34.23385095577673
919,224,50911,Westbound E Broadway @ Lakewood Dr,BUS ZN,49.262356,-123.062394,4927,29.966384463252826
918,225,50910,Westbound E Broadway @ Kamloops St,BUS ZN,49.262127,-123.055187,5296,38.44112927818809
915,226,50907,Westbound E Broadway @ Renfrew St,BUS ZN,49.262097,-123.044962,5720,53.15639902094505
917,227,50909,Westbound E Broadway @ Penticton St,BUS ZN,49.262111,-123.051889,5401,24.523142260312543
916,228,50908,Westbound E Broadway @ Slocan St,BUS ZN,49.262111,-123.050045,5506,36.89852948334734
911,229,50904,Westbound E Broadway @ Rupert St,BUS ZN,49.262009,-123.034312,6134,43.56780253336885
910,230,50903,Westbound E Broadway @ Cassiar St,BUS ZN,49.262053,-123.031548,6235,40.06198934382088
912,231,50905,Westbound E Broadway @ Windermere St,BUS ZN,49.261989,-123.037125,6039,46.55906406167382
11813,232,61684,Westbound Great Northern Way @ Thornton St,BUS ZN,49.266906,-123.09471,3489,30.38203001664629
8078,233,58003,Waterfront Station @ Platform 1,ZN 1,49.285962,-123.111516,2796,77.19239963592509
8071,234,57996,29th Avenue Station @ Platform 1,ZN 1,49.24431,-123.04608,5663,36.20178622280218
8070,235,57995,Joyce-Collingwood Station @ Platform 1,ZN 1,49.23843,-123.031759,6209,20.6618621090805
8073,236,57998,Commercial-Broadway Station @ Platform 3,ZN 1,49.262311,-123.069077,4561,48.63447709961985
8072,237,57997,Nanaimo Station @ Platform 1,ZN 1,49.248334,-123.055868,5167,56.18040981365221
8075,238,58000,Stadium-Chinatown Station @ Platform 1,ZN 1,49.279271,-123.109109,2906,74.50246218639833
8074,239,57999,Main Street-Science World Station @ Platform 1,ZN 1,49.273172,-123.10035,3271,50.896593627124886
8077,240,58002,Burrard Station @ Platform 1,ZN 1,49.28558,-123.119598,2529,16.233199949443417
8076,241,58001,Granville Station @ Platform 1,ZN 1,49.283193,-123.115674,2661,19.1312760358555
1217,242,51208,Northbound Victoria Dr @ E 51 Ave,BUS ZN,49.223425,-123.065653,4732,8.392258693852073
1214,243,51205,Northbound Victoria Dr @ Brigadoon Ave,BUS ZN,49.21691,-123.065874,4712,28.06039651723444
1215,244,51206,Northbound Victoria Dr @ Upland Dr,BUS ZN,49.218398,-123.065832,4714,37.78707050991413
1111,245,51102,Southbound Arbutus St @ Valley Dr,BUS ZN,49.244919,-123.153466,1174,32.557298835187844
1113,246,51104,Southbound Arbutus St @ W 35 Ave,BUS ZN,49.239992,-123.155467,1114,28.957911569203368
1112,247,51103,Southbound Arbutus St @ W 32 Ave,BUS ZN,49.242695,-123.15359,1173,37.0273524592856
1115,248,51106,Southbound West Blvd @ W 39 Ave,BUS ZN,49.236097,-123.155609,1105,38.34957622904771
1114,249,51105,Southbound West Blvd @ W 37 Ave,BUS ZN,49.23803,-123.155552,1109,30.729705865329013
1117,250,51108,Southbound West Blvd @ W 43 Ave,BUS ZN,49.232443,-123.155746,1094,31.68707624838376
1116,251,51107,Southbound West Blvd @ W 41 Ave,BUS ZN,49.234303,-123.155677,1099,31.21640585207013
1219,252,51210,Northbound Victoria Dr @ Waverley Ave,BUS ZN,49.227465,-123.065556,4746,16.89473896773912
2004,253,51987,Eastbound E 49 Ave @ Elliott St,BUS ZN,49.224744,-123.054297,5287,32.673510768384624
2005,254,51988,Eastbound E 49 Ave @ Vivian St,BUS ZN,49.22471,-123.049761,5480,40.41056070310717
12168,255,60745,Dunbar Loop @ Bay 3,BUS ZN,49.234673,-123.186318,343,38.18860572468708
11262,256,61360,Southbound Oak St @ W 72 Ave,BUS ZN,49.205381,-123.130464,2061,30.069078371507278
11260,257,61040,Olympic Village Station @ Bay 1,BUS ZN,49.266245,-123.115944,2649,26.02736541967173
1801,258,51787,Joyce Station @ Bay 4,BUS ZN,49.237907,-123.031047,6275,48.36553512974241
199,259,50199,Eastbound W 41 Ave @ Granville St,BUS ZN,49.23422,-123.138484,1737,37.533942641286
198,260,50198,Westbound W 41 Ave @ Granville St,BUS ZN,49.234391,-123.139167,1670,30.356124612025216
195,261,50195,Westbound W 41 Ave @ Oak St,BUS ZN,49.234081,-123.128633,2164,44.30969918444698
197,262,50197,Westbound W 41 Ave @ Cartier St,BUS ZN,49.234332,-123.137,1775,15.824447020903987
196,263,50196,Westbound W 41 Ave @ Selkirk St,BUS ZN,49.234201,-123.132951,1945,28.57787367255676
190,264,50190,Southbound Richards St @ Dunsmuir St,BUS ZN,49.281944,-123.115253,2719,74.56484266118245
193,265,59040,Westbound Robson St @ Granville St,BUS ZN,49.28128,-123.119551,2515,20.923651467453116
12791,266,60552,Westbound W Broadway @ Hemlock St,BUS ZN,49.263652,-123.134884,1928,86.48260690063626
850,268,50843,Northbound Fraser St @ E 17 Ave,BUS ZN,49.255774,-123.089737,3694,29.657847299120963
851,269,50844,Northbound Fraser St @ E 14 Ave,BUS ZN,49.258292,-123.089096,3726,43.932112879321096
852,270,50845,Northbound Fraser St @ E 12 Ave,BUS ZN,49.260077,-123.089055,3729,41.25302022300628
853,271,50846,Northbound Fraser St @ E 10 Ave,BUS ZN,49.261837,-123.08903,3731,35.89183300746761
859,272,50852,Westbound W Hastings St @ Richards St,BUS ZN,49.284435,-123.112367,2765,43.64126954552928
8907,273,58401,Renfrew Station @ Bay 1,BUS ZN,49.25903,-123.044439,5716,22.586884457250132
1304,274,60709,Southbound Knight St @ E 17 Ave,BUS ZN,49.255003,-123.076054,4290,35.21705841664085
1307,275,51296,Southbound Knight St @ E 23 Ave,BUS ZN,49.249651,-123.076243,4279,27.649912169468884
1300,276,51289,Southbound Clark Dr @ E 6th Ave,BUS ZN,49.264806,-123.07763,4216,43.99552266079962
1301,277,51290,Southbound Clark Dr @ E Broadway,BUS ZN,49.262018,-123.07773,4212,43.54996469921203
1302,278,51291,Southbound Clark Dr @ E 12 Ave,BUS ZN,49.259354,-123.077691,4208,31.189683848214745
1308,279,51297,Southbound Knight St @ E King Edward Ave,BUS ZN,49.248155,-123.076298,4276,38.662381368047605
1309,280,51298,Southbound Knight St @ E 27 Ave,BUS ZN,49.24614,-123.076373,4273,33.75423589216771
498,281,50494,Westbound Dundas St @ N Templeton Dr,BUS ZN,49.284871,-123.060143,5026,34.1512574825264
499,282,50495,Westbound Dundas St @ Wall St,BUS ZN,49.284888,-123.063271,4859,21.74908296429525
494,283,50490,Westbound McGill St @ N Penticton St,BUS ZN,49.288801,-123.052418,5441,37.361008390307774
495,284,50491,Southbound N Nanaimo St @ McGill St,BUS ZN,49.288026,-123.05666,5235,35.71575190694669
496,285,50492,Southbound N Nanaimo St @ Cambridge St,BUS ZN,49.286276,-123.056672,5232,38.81237553180678
497,286,50493,Westbound Dundas St @ N Garden Dr,BUS ZN,49.284885,-123.057411,5135,26.534199163750312
493,287,50489,Westbound McGill St @ N Kaslo St,BUS ZN,49.28882,-123.047415,5645,55.59421826159131
1604,288,51592,Westbound W 16 Ave @ Alma St,BUS ZN,49.258091,-123.18653,348,37.21472879436215
12814,289,61762,Eastbound W 4th Ave @ Maple St,BUS ZN,49.26801,-123.150017,1287,25.65572141934215
977,290,50968,Southbound Victoria Dr @ Victoria Diversion,BUS ZN,49.252727,-123.066107,4701,16.448852706459334
976,291,50967,Southbound Victoria Diversion @ Commercial St,BUS ZN,49.253864,-123.067594,4649,51.91057216850405
974,292,58093,Southbound Commercial Dr @ E 14 Ave,BUS ZN,49.257485,-123.069954,4553,30.113594710004215
973,293,58092,Southbound Commercial Dr @ E 12 Ave,BUS ZN,49.259177,-123.06995,4557,43.48767347669838
972,294,50963,Commercial-Broadway Station @ Bay 2,BUS ZN,49.261929,-123.069913,4561,44.45258576181292
970,295,50961,Westbound E Hastings St @ Penticton St,BUS ZN,49.281228,-123.052402,5430,35.024451765331314
12811,296,60570,Eastbound W 4th Ave @ Blenheim St,BUS ZN,49.268415,-123.177316,569,27.148443756816928
10471,297,59914,Westbound Pacific Blvd @ Cambie St,BUS ZN,49.274606,-123.119683,2531,32.12622816580648
10470,298,58169,Eastbound Keefer Place @ Taylor St,BUS ZN,49.279326,-123.105758,2987,30.47466925386013
10478,299,59926,Eastbound National Ave @ Quebec St,BUS ZN,49.27487,-123.101464,3174,33.237630202692166
11871,300,61800,Victoria Dr @ 54th Avenue Loop,BUS ZN,49.219851,-123.065682,4720,51.29567436876244
1681,301,51668,Northbound Rupert St @ E 45 Ave,BUS ZN,49.229625,-123.043009,5766,38.039106343860084
1680,302,51667,Northbound Rupert St @ Kerr St,BUS ZN,49.227532,-123.041348,5867,40.16409154011292
1683,303,51670,Northbound Rupert St @ E 41 Ave,BUS ZN,49.233276,-123.042996,5769,35.43432498594688
1682,304,51669,Northbound Rupert St @ E 43 Ave,BUS ZN,49.231367,-123.042993,5768,30.00183200690587
1685,305,51671,Joyce Station @ Bay 2,BUS ZN,49.238709,-123.032702,6209,81.03375177926546
1689,306,51675,Northbound Rupert St @ E 29 Ave,BUS ZN,49.244846,-123.033756,6112,36.04233848474605
318,307,50315,Eastbound W Broadway @ Alma St,BUS ZN,49.264278,-123.185239,356,44.615279975330836
313,308,50310,Northbound Dunbar St @ W 18 Ave,BUS ZN,49.256755,-123.185003,404,31.75683431301188
311,309,50308,Northbound Dunbar St @ W 22 Ave,BUS ZN,49.253177,-123.18504,400,36.01596941127123
310,310,50307,Northbound Dunbar St @ W King Edward Ave,BUS ZN,49.250494,-123.185062,397,49.4249636896132
317,311,50314,Northbound Alma St @ W 10 Ave,BUS ZN,49.263872,-123.185744,355,45.28580244336424
316,312,50313,Northbound Alma St @ W 12 Ave,BUS ZN,49.261926,-123.185815,353,32.211255777115085
315,313,50312,Northbound Dunbar Diversion @ W 14 Ave,BUS ZN,49.260126,-123.184213,411,40.99071917436766
11209,314,61097,Eastbound W 16 Ave @ Willow St,BUS ZN,49.256969,-123.121578,2408,32.6773483749119
442,315,50438,Northbound N Nanaimo St @ Dundas St,BUS ZN,49.285176,-123.05639,5230,44.27197277881349
441,316,50437,Eastbound Dundas St @ Templeton Dr,BUS ZN,49.284738,-123.059274,5026,30.592811060436745
440,317,50436,Eastbound Dundas St @ Lakewood Dr,BUS ZN,49.284754,-123.061245,4957,27.986494432344088
447,318,50443,Eastbound McGill St @ N Slocan St,BUS ZN,49.288617,-123.048823,5546,35.95854783932321
446,319,50442,Eastbound McGill St @ N Penticton St,BUS ZN,49.288627,-123.051421,5441,37.49932755866193
12679,320,60433,Westbound Kingsway @ Gladstone,BUS ZN,49.24353,-123.061464,4938,24.183619205372203
444,321,50440,Northbound N Nanaimo St @ Eton St,BUS ZN,49.288013,-123.056367,5235,33.39565605399546
405,322,50401,Eastbound W 4th Ave @ Fir St,BUS ZN,49.267853,-123.140145,1623,51.442906113164256
12671,323,60395,Westbound W 41 Ave @ Carnarvon St,BUS ZN,49.234826,-123.174148,669,81.79936087505389
12670,324,60431,Westbound W 41 Ave @ Churchill St,BUS ZN,49.234437,-123.141226,1590,16.582713639182618
12672,325,58268,Eastbound W 41 Ave @ Oak St,BUS ZN,49.233818,-123.127728,2164,27.921196882658002
38,326,50038,Westbound Powell St @ Columbia St,BUS ZN,49.283285,-123.102896,3158,53.70633141830966
35,327,50035,Waterfront Station @ Bay 4,BUS ZN,49.284786,-123.111191,2820,22.282460326248408
871,328,50864,Southbound Granville St @ W 68 Ave,BUS ZN,49.209597,-123.140672,1636,102.62286364877151
2036,329,52019,Westbound E 49 Ave @ Beatrice St,BUS ZN,49.225263,-123.067538,4677,35.45169734279099
2743,330,52718,Westbound E Hastings St @ Renfrew St,BUS ZN,49.281222,-123.043342,5745,53.437401219995756
2742,331,52717,Kootenay Loop @ Bay 7,BUS ZN,49.281204,-123.025393,6457,23.11174510705141
2039,333,52022,Westbound E 49 Ave @ Knight St,BUS ZN,49.225388,-123.077939,4224,49.39465725759338
2038,334,52021,Westbound E 49 Ave @ Fleming St,BUS ZN,49.225316,-123.073579,4426,33.436561945761795
1094,335,51085,Northbound Renfrew St @ E 5th Ave,BUS ZN,49.266066,-123.044136,5724,40.91549577343658
1095,336,51086,Northbound Renfrew St @ E 3rd Ave,BUS ZN,49.26794,-123.044107,5727,41.007821440964584
1096,337,51087,Northbound Renfrew St @ E 1st Ave,BUS ZN,49.269832,-123.044037,5729,40.412795187052104
1097,338,51088,Northbound Renfrew St @ Grant St,BUS ZN,49.271682,-123.044039,5733,38.38627613171006
1090,339,51081,Northbound Renfrew St @ Grandview Hwy,BUS ZN,49.257532,-123.044132,5714,36.82676035000554
1091,340,51082,Renfrew Station @ Bay 3,BUS ZN,49.259529,-123.0441,5716,38.61523606819242
1092,341,51083,Northbound Renfrew St @ E Broadway,BUS ZN,49.262253,-123.044105,5720,36.06281301534611
1093,342,51084,Northbound Renfrew St @ E 7th Ave,BUS ZN,49.264174,-123.04414,5722,36.80474374011848
1098,343,51089,Northbound Renfrew St @ Charles St,BUS ZN,49.273636,-123.044011,5735,43.14742206772314
1099,344,51090,Northbound Renfrew St @ Venables St,BUS ZN,49.276287,-123.043972,5738,15.544889793320108
1322,345,51311,Southbound Knight St @ E 53 Ave,BUS ZN,49.221522,-123.077568,4213,32.20249197252743
1320,346,51309,Southbound Knight St @ E 49 Ave,BUS ZN,49.224925,-123.077479,4224,43.0541597764479
1321,347,51310,Southbound Knight St @ E 51 Ave,BUS ZN,49.223084,-123.077505,4217,35.930080016219414
1326,348,51315,Southbound Knight St @ E 60 Ave,BUS ZN,49.215154,-123.077208,4246,37.03104311079542
1327,349,51316,Southbound Knight St @ E 62 Ave,BUS ZN,49.213443,-123.077228,4242,36.60202572659809
1324,350,51313,Southbound Knight St @ E 57 Ave,BUS ZN,49.218344,-123.077162,4251,27.087003995829193
1325,351,51314,Southbound Knight St @ E 58 Ave,BUS ZN,49.216969,-123.077184,4249,33.9439399427226
1328,352,51317,Southbound Knight St @ E 63 Ave,BUS ZN,49.212389,-123.077238,4239,46.4366074563163
1329,353,51318,Knight St Underpass @ SE Marine Dr,BUS ZN,49.21125,-123.076921,4236,24.1892628618642
11438,354,51374,Eastbound W Hastings St @ Granville St,BUS ZN,49.285445,-123.11425,2725,33.05167433244081
11436,355,51773,Eastbound Laurel St @ Boundary Rd,BUS ZN,49.254148,-123.022894,6514,59.49943398907779
959,356,50951,Eastbound E Hastings St @ Renfrew St,BUS ZN,49.281012,-123.043299,5745,56.51520995459235
958,357,50950,Eastbound E Hastings St @ Kaslo St,BUS ZN,49.281035,-123.046243,5637,34.038388871703916
951,358,50943,Eastbound E Hastings St @ Commercial Dr,BUS ZN,49.28111,-123.069698,4525,50.813756203924505
950,359,58283,Eastbound E Hastings St @ McLean Dr,BUS ZN,49.281191,-123.073421,4373,50.484119703062206
953,360,50945,Eastbound E Hastings St @ Lakewood Dr,BUS ZN,49.281063,-123.061265,4953,32.72053906031523
952,361,50944,Eastbound E Hastings St @ Victoria Dr,BUS ZN,49.28108,-123.064979,4769,43.25810755648752
955,362,50947,Eastbound E Hastings St @ Nanaimo St,BUS ZN,49.281059,-123.055828,5226,52.099914047150186
954,363,50946,Eastbound E Hastings St @ Templeton Dr,BUS ZN,49.281098,-123.059289,5021,34.153545297026376
957,364,50949,Eastbound E Hastings St @ Slocan St,BUS ZN,49.281041,-123.048668,5538,48.040900478297715
956,365,50948,Eastbound E Hastings St @ Kamloops St,BUS ZN,49.281035,-123.054098,5323,35.896156979860336
1668,370,51656,Westbound Champlain Cres @ Matheson Cres,BUS ZN,49.210765,-123.027827,6396,47.639587309856964
1667,371,51655,Southbound Matheson Cres @ Raintree Court,BUS ZN,49.214374,-123.025642,6469,47.464214293399166
1665,373,51653,Southbound Matheson Cres @ Borham Cres,BUS ZN,49.216164,-123.025247,6480,145.28335878909243
1664,374,51652,Westbound Arbor Ave @ Boundary Rd,BUS ZN,49.217523,-123.024331,6480,53.94790972967093
1663,375,51651,Eastbound Hurst Ave @ Boundary Rd,BUS ZN,49.22009,-123.024161,6499,30.820667255663135
1662,376,51650,Southbound Frontenac St @ Hurst Ave,BUS ZN,49.220252,-123.026594,6414,18.524200165271715
1661,377,51649,Southbound Frontenac St @ Hennepin Ave,BUS ZN,49.221872,-123.026506,6413,7.915295980232863
1660,378,51648,Eastbound E 49 Ave @ Arlington St,BUS ZN,49.223027,-123.027926,6365,28.534515067150977
591,379,50585,Westbound W 4th Ave @ Macdonald St,BUS ZN,49.268459,-123.168863,786,42.447995783095436
590,380,50584,Westbound W 4th Ave @ Trafalgar St,BUS ZN,49.268401,-123.164962,897,34.75274768476387
593,381,50587,Westbound W 4th Ave @ Balaclava St,BUS ZN,49.268528,-123.174217,655,31.72890696613098
594,382,50588,Westbound W 4th Ave @ Blenheim St,BUS ZN,49.268578,-123.178075,569,30.828153503974754
597,383,50591,Westbound W 4th Ave @ Wallace St,BUS ZN,49.268794,-123.191056,287,31.677074940608865
596,384,50590,Westbound W 4th Ave @ Alma St,BUS ZN,49.26871,-123.186254,361,42.4075626539206
599,385,50593,Westbound W 4th Ave @ 4100 Block,BUS ZN,49.268917,-123.197836,149,117.49944632675088
1546,386,51534,Eastbound E 22 Ave @ Rupert St,BUS ZN,49.250529,-123.033251,6122,39.74438653985643
696,387,50689,Westbound E Pender St @ Main St,BUS ZN,49.280463,-123.100688,3289,74.15407193422948
360,388,50356,Southbound Alma St @ W 6th Ave,BUS ZN,49.266642,-123.185897,359,30.919274932475048
339,389,50335,Southbound Oak St @ Douglas Cres,BUS ZN,49.254123,-123.127471,2202,35.4217718791257
335,390,50331,Southbound Oak St @ W 12 Ave,BUS ZN,49.260251,-123.126842,2235,37.89054315652939
337,391,50333,Southbound Oak St @ W 16 Ave,BUS ZN,49.256751,-123.127351,2210,30.244676688247253
331,392,50327,Eastbound W Broadway @ Hemlock St,BUS ZN,49.263448,-123.134715,1928,73.24926708835461
332,393,50328,Eastbound W Broadway @ Alder St,BUS ZN,49.263381,-123.130979,2028,28.43701793066728
1548,394,51536,Eastbound E 22 Ave @ Kootenay St,BUS ZN,49.250584,-123.025808,6423,31.195282619206605
11227,395,50483,Northbound Cambie St @ W 7th Ave,BUS ZN,49.264648,-123.114622,2707,24.385988580082213
11221,396,50412,Southbound Cambie St @ W 7th Ave,BUS ZN,49.264477,-123.114982,2706,42.1004826440835
11220,397,51372,Eastbound W Pender St @ Jervis St,BUS ZN,49.288846,-123.125208,2275,29.127217565491055
12755,398,60519,Westbound Cornwall Ave @ Maple St,BUS ZN,49.27258,-123.14994,1294,20.308206081487246
9119,399,58650,Eastbound W 41 Ave @ Crown St,BUS ZN,49.23468,-123.194664,213,70.14853807034056
1597,400,51585,Westbound W King Edward Ave @ Yew St,BUS ZN,49.251149,-123.156163,1087,29.547831942596694
12822,402,60579,Westbound E Broadway @ Quebec,BUS ZN,49.263084,-123.104155,3035,53.454197065381976
10591,403,60302,Northbound Cambie St @ Dunsmuir St,BUS ZN,49.280182,-123.111842,2803,39.027363443809826
10595,404,50138,Eastbound W 41 Ave @ Columbia St,BUS ZN,49.23327,-123.111462,2791,43.763300072577366
1348,405,51337,Northbound Knight St @ E 39 Ave,BUS ZN,49.235113,-123.07681,4258,37.55762586449708
1349,406,51338,Northbound Knight St @ E 37 Ave,BUS ZN,49.237188,-123.076748,4260,39.030529576658274
1340,407,51329,Northbound Knight St @ E 57 Ave,BUS ZN,49.218444,-123.076884,4251,36.994255254065344
1342,408,51331,Northbound Knight St @ E 51 Ave,BUS ZN,49.223765,-123.077214,4217,42.782122839324394
1343,409,51332,Northbound Knight St @ E 49 Ave,BUS ZN,49.225701,-123.077098,4224,47.62355481309584
1344,410,51333,Northbound Knight St @ E 47 Ave,BUS ZN,49.227974,-123.077067,4230,36.42640409463762
1345,411,51334,Northbound Knight St @ E 45 Ave,BUS ZN,49.229335,-123.077025,4234,37.90313008939111
1346,412,51335,Northbound Knight St @ E 43 Ave,BUS ZN,49.230966,-123.076961,4243,38.74013941738208
1347,413,51336,Northbound Knight St @ E 41 Ave,BUS ZN,49.233088,-123.076848,4252,43.86903511050042
8046,414,57971,29th Avenue Station @ Platform 2,ZN 1,49.244236,-123.046136,5663,45.37944699390523
1026,415,51017,Northbound Arbutus St @ W 51 Ave,BUS ZN,49.225393,-123.155125,1119,46.73904805145368
1021,416,51012,Northbound Angus Dr @ W 61 Ave,BUS ZN,49.215648,-123.148305,1338,41.75351896907888
1029,417,51020,Northbound West Blvd @ W 45 Ave,BUS ZN,49.231163,-123.155603,1088,34.77760105211582
1028,418,51019,Northbound West Blvd @ W 46 Ave,BUS ZN,49.230145,-123.155632,1085,30.186924240076372
9307,419,58893,Westbound W Pender St @ Burrard St,BUS ZN,49.286833,-123.118031,2588,31.985561265752775
1645,420,51633,Northbound Tyne St @ E 45 Ave,BUS ZN,49.228978,-123.031961,6197,32.81011669990188
1644,421,51632,Northbound Tyne St @ E 47 Ave,BUS ZN,49.226688,-123.032071,6196,32.199739941805205
1647,422,51635,Northbound Joyce St @ Marmion Ave,BUS ZN,49.231836,-123.03734,5992,31.157302224649303
1646,423,51634,Northbound Joyce St @ E 45 Ave,BUS ZN,49.229581,-123.037333,5990,34.99776112143277
1641,424,51629,Westbound E 49 Ave @ Boundary Rd,BUS ZN,49.222065,-123.024529,6502,9.895651401063104
1640,425,51628,Northbound Boundary Rd @ Hurst Ave,BUS ZN,49.220212,-123.023547,6532,8.364596267077081
1643,426,51631,Northbound Tyne St @ E 49 Ave,BUS ZN,49.225083,-123.032151,6194,17.27697905699846
1642,427,51630,Westbound E 49 Ave @ Arlington St,BUS ZN,49.223442,-123.028307,6365,25.274290246071224
1648,428,51636,Northbound Joyce St @ Kingsway,BUS ZN,49.234391,-123.03552,6076,36.667242948286045
579,429,50574,Westbound W 10 Ave @ Courtenay St,BUS ZN,49.263781,-123.200725,144,56.111269758287094
578,430,50573,Westbound W 10 Ave @ Camosun St,BUS ZN,49.263725,-123.197332,176,31.14092775422729
573,431,50568,Westbound W Broadway @ Collingwood St,BUS ZN,49.264377,-123.182257,476,31.962771994811757
572,432,50567,Westbound W Broadway @ Blenheim St,BUS ZN,49.264311,-123.178243,562,31.3214940765304
571,433,50566,Westbound W Broadway @ Balaclava St,BUS ZN,49.264241,-123.174408,650,33.50476450199563
570,434,50565,Westbound W Broadway @ Bayswater St,BUS ZN,49.264221,-123.171711,705,24.9823538166206
577,435,50572,Westbound W 10 Ave @ Crown St,BUS ZN,49.263683,-123.194468,209,43.4258559734449
576,436,50571,Westbound W 10 Ave @ Wallace St,BUS ZN,49.263644,-123.191417,280,42.69957843834415
8535,437,50043,Burrard Station @ Bay 1,BUS ZN,49.285306,-123.119982,2508,17.00711257103954
10661,438,52967,Southbound N Esmond Ave @ McGill St,BUS ZN,49.287961,-123.020951,6557,183.34665622065353
2010,440,51993,Eastbound Imperial St @ Boundary Rd,BUS ZN,49.221875,-123.022768,6535,60.24658969925468
359,441,50355,Southbound Alma St @ W 4th Ave,BUS ZN,49.268214,-123.18585,361,46.3922406191328
358,442,50354,Eastbound W 4th Ave @ Alma St,BUS ZN,49.268538,-123.185205,361,36.070215199321915
11071,443,61138,Westbound NW Marine Dr @ W 4th Ave,BUS ZN,49.268938,-123.200648,131,56.8570346336996
12771,444,60525,Eastbound Pacific St @ Thurlow St,BUS ZN,49.278412,-123.13473,1903,30.572440118655507
12772,445,60526,Westbound Beach Ave @ Bidwell St,BUS ZN,49.284303,-123.142591,1548,29.0343426813436
10441,446,50015,Eastbound Pacific Blvd @ Drake St,BUS ZN,49.273429,-123.123135,2364,39.333067318973335
11606,449,50913,Commercial-Broadway Station @ Bay 5,BUS ZN,49.262416,-123.06875,4561,73.24835162753332
2071,450,52054,Northbound Dunbar St @ W 43 Ave,BUS ZN,49.233182,-123.18528,376,36.89565498644351
2070,451,52053,Northbound Dunbar St @ SW Marine Dr,BUS ZN,49.231041,-123.185323,371,45.003329735517646
2075,452,52058,Westbound Lameys Mill Rd @ Sitka Square,BUS ZN,49.266459,-123.129345,2120,25.063767449664844
2074,453,52057,Heather Square @ Bay 1,BUS ZN,49.266191,-123.120109,2470,33.772397003595316
8394,454,50757,Northbound Granville St @ W 71 Ave,BUS ZN,49.207431,-123.1404,1630,41.961040129006
1366,455,58280,Westbound Terminal Ave @ 300 Block,BUS ZN,49.272363,-123.096638,3477,95.44426716713511
1367,456,51356,Northbound Clark Dr @ E 1st Ave,BUS ZN,49.269991,-123.077215,4225,37.21137901050552
1364,457,51353,Westbound Terminal Ave @ Begg St,BUS ZN,49.270771,-123.087153,3788,23.25268373338701
1365,458,51354,Westbound Terminal Ave @ Thornton St,BUS ZN,49.271779,-123.093108,3574,20.09896863656568
1362,459,51351,Northbound Clark Dr @ E 6th Ave,BUS ZN,49.264845,-123.077316,4216,38.097087556609054
1363,460,51352,Northbound Clark Dr @ E 3rd Ave,BUS ZN,49.268147,-123.077256,4222,34.458556010167214
1360,461,51349,Northbound Clark Dr @ E 11 Ave,BUS ZN,49.260268,-123.077343,4210,30.998588720055594
1361,462,51350,Northbound Clark Dr @ E Broadway,BUS ZN,49.262754,-123.077367,4212,42.942638442465515
1368,463,51357,Northbound Clark Dr @ Grant St,BUS ZN,49.271749,-123.077197,4227,28.87136048426925
1369,464,51358,Northbound Clark Dr @ William St,BUS ZN,49.274264,-123.077153,4231,27.504500751629845
299,465,50296,Westbound W 41 Ave @ Blenheim St,BUS ZN,49.234831,-123.179103,528,30.25306106926888
296,466,50293,Westbound W 41 Ave @ Mackenzie St,BUS ZN,49.234819,-123.170795,733,41.14653634980956
297,467,50294,Westbound W 41 Ave @ Carnarvon St,BUS ZN,49.23482,-123.173542,669,38.29378647519844
294,468,50291,Westbound W 41 Ave @ Larch St,BUS ZN,49.234767,-123.163165,929,32.950330843046515
295,469,50292,Westbound W 41 Ave @ Macdonald St,BUS ZN,49.23481,-123.167912,829,40.9414969985698
293,470,50290,Westbound W 41 Ave @ Vine St,BUS ZN,49.234721,-123.160343,997,32.58319891693458
291,471,50288,Westbound W 41 Ave @ Maple St,BUS ZN,49.234633,-123.152449,1230,32.75470317042852
1623,472,51611,Southbound Kerr St @ E 52 Ave,BUS ZN,49.221906,-123.041297,5857,18.38063240331276
1993,473,51976,Eastbound E 49 Ave @ Prince Albert St,BUS ZN,49.225373,-123.08761,3752,26.925221071527236
1620,474,51608,Southbound Rupert St @ Kerr St,BUS ZN,49.227481,-123.041563,5867,56.56482035276676
1627,475,51615,Eastbound Rosemont Dr @ Kerr St,BUS ZN,49.21544,-123.040483,5826,73.97822951221579
1994,476,51977,Eastbound E 49 Ave @ Windsor St,BUS ZN,49.225337,-123.084766,3871,35.016665815064016
1625,477,51613,Southbound Kerr St @ E 56 Ave,BUS ZN,49.218403,-123.041467,5847,27.52857731262514
1624,478,51612,Southbound Kerr St @ E 54 Ave,BUS ZN,49.219855,-123.041405,5853,36.76811969506109
1999,479,51982,Eastbound E 49 Ave @ Commercial St,BUS ZN,49.22514,-123.068504,4625,9.680903965246603
1998,480,51981,Eastbound E 49 Ave @ Argyle St,BUS ZN,49.225164,-123.071276,4472,35.021799219467425
1629,481,51617,Southbound Butler St @ Rosemont Dr,BUS ZN,49.216166,-123.034529,6090,35.606882701134296
1628,482,51616,Eastbound Rosemont Dr @ 3200 Block,BUS ZN,49.215571,-123.036746,6002,6.403816912695356
559,483,50554,Southbound Granville St @ W 37 Ave,BUS ZN,49.237706,-123.139593,1677,39.90667471520321
558,484,50553,Southbound Granville St @ W 35 Ave,BUS ZN,49.239615,-123.139528,1679,38.232192486646866
557,485,50552,Southbound Granville St @ W 33 Ave,BUS ZN,49.241525,-123.139454,1684,39.08887516570637
556,486,50551,Southbound Granville St @ W 32 Ave,BUS ZN,49.243251,-123.139408,1688,43.65844789129251
551,487,50546,Southbound Granville St @ Matthews Ave,BUS ZN,49.252781,-123.139073,1706,40.770731642697726
550,488,50545,Southbound Granville St @ Angus Dr,BUS ZN,49.254178,-123.13903,1707,46.0827860541475
552,489,50547,Southbound Granville St @ Laurier Ave,BUS ZN,49.2505,-123.139186,1702,38.75916067297167
1199,490,51190,Westbound Kingsway @ Miller St,BUS ZN,49.247137,-123.06911,4603,23.893616810586057
1198,491,51189,Westbound Kingsway @ Victoria Dr,BUS ZN,49.245543,-123.065671,4799,50.48980581860004
1191,492,51182,Westbound E 41 Ave @ Killarney St,BUS ZN,49.23303,-123.046378,5660,35.08206058681964
1190,493,51181,Westbound E 41 Ave @ Rupert St,BUS ZN,49.233057,-123.043713,5769,47.39276551695805
1193,494,51184,Westbound Kingsway @ McKinnon St,BUS ZN,49.235237,-123.038053,5983,28.698757569884975
1192,495,51183,Westbound E 41 Ave @ Earles St,BUS ZN,49.232858,-123.049155,5564,30.012365558946556
1195,496,51186,Westbound Kingsway @ Rupert St,BUS ZN,49.236114,-123.04296,5786,51.750239822561724
1194,497,51185,Westbound Kingsway @ Spencer St,BUS ZN,49.235933,-123.041047,5871,24.648602020696174
1196,498,51187,Westbound Kingsway @ Fairmont St,BUS ZN,49.236931,-123.046942,5632,32.708226902351356
458,499,50454,Northbound Oak St @ Devonshire Cres,BUS ZN,49.244894,-123.127493,2176,49.82693497843658
459,500,50455,Northbound Oak St @ W 27 Ave,BUS ZN,49.247506,-123.12749,2184,32.32908343268935
450,501,50446,Eastbound McGill St @ N Renfrew St,BUS ZN,49.288595,-123.0434,5753,48.604237403124365
453,502,50449,Westbound McGill St @ N Renfrew St,BUS ZN,49.288825,-123.044601,5753,42.224630843048665
455,503,50451,Northbound Oak St @ W 38 Ave,BUS ZN,49.237021,-123.12785,2166,32.45320313978553
457,504,50453,Northbound Oak St @ W 33 Ave,BUS ZN,49.241748,-123.12769,2171,36.41345725522024
12669,505,60397,Westbound W 41 Ave @ Oak St,BUS ZN,49.234095,-123.129021,2164,71.79929072855616
371,506,50367,Southbound Dunbar St @ W 27 Ave,BUS ZN,49.247813,-123.185322,394,29.25129383155179
370,507,50366,Southbound Dunbar St @ W King Edward Ave,BUS ZN,49.249684,-123.185302,397,42.36374974757777
373,508,50369,Southbound Dunbar St @ W 31 Ave,BUS ZN,49.243962,-123.185351,390,35.22844496362041
375,509,50371,Southbound Dunbar St @ W 35 Ave,BUS ZN,49.240149,-123.185397,386,36.65341977031572
374,510,50370,Southbound Dunbar St @ W 33 Ave,BUS ZN,49.242056,-123.185368,388,35.24921401064901
376,511,50372,Southbound Dunbar St @ W 37 Ave,BUS ZN,49.238349,-123.185425,384,26.79461918354831
12665,512,60404,Northbound Joyce St @ Church St,BUS ZN,49.234646,-123.03528,6083,18.10101088526187
12663,513,60396,Eastbound W 41 Ave @ Carnarvon St,BUS ZN,49.23467,-123.173495,669,34.69117206945513
12712,514,60417,Westbound W 12th Ave @ Heather St,BUS ZN,49.260557,-123.12041,2507,34.11604267445721
12713,515,60418,Westbound W 12th Ave @ Cambie St,BUS ZN,49.260482,-123.11559,2695,47.4871495790453
12710,516,60415,Westbound W 12th Ave @ Laurel St,BUS ZN,49.260622,-123.124667,2320,29.668545273751672
12711,517,60416,Eastbound W 12th Ave @ Heather St,BUS ZN,49.260394,-123.120306,2507,26.34362628974991
10976,518,61074,Southbound Main St @ Powell St,BUS ZN,49.282699,-123.099733,3298,47.78845636017437
11596,519,50878,Eastbound E Broadway @ Ontario St,BUS ZN,49.262911,-123.104471,3035,31.30465747924108
2051,520,61218,Langara-49th Station @ Bay 2,BUS ZN,49.226178,-123.116035,2627,33.01051988399054
2050,521,52033,Westbound W 49 Ave @ Alberta St,BUS ZN,49.226074,-123.113387,2750,34.10588788838344
2053,522,52036,Westbound W 49 Ave @ Laurel St,BUS ZN,49.226538,-123.125587,2282,34.55275392019408
2052,523,52035,Westbound W 49 Ave @ Tisdall St,BUS ZN,49.226382,-123.121438,2418,24.414381800618795
2055,524,52038,Westbound W 49 Ave @ Montgomery St,BUS ZN,49.226761,-123.13243,2001,39.73273404861297
2054,525,52037,Westbound W 49 Ave @ Oak St,BUS ZN,49.226658,-123.128988,2152,51.440228627999986
2056,526,52039,Westbound W 49 Ave @ Hudson St,BUS ZN,49.22688,-123.135533,1865,35.29867211922791
11622,527,50714,Westbound E 41st Ave @ Main St,BUS ZN,49.233193,-123.101267,3193,21.692726555895327
10620,528,58614,Eastbound E Broadway St @ Fraser St,BUS ZN,49.26236,-123.088379,3732,53.93026289433389
804,529,50797,Southbound Fraser St @ E 55 Ave,BUS ZN,49.219642,-123.091056,3648,36.00808789948282
12487,531,60223,Northbound Fraser St @ E 20 Ave,BUS ZN,49.253266,-123.089851,3692,50.42577765359546
8621,532,58183,Eastbound SE Marine Dr @ 2600 Block,BUS ZN,49.207204,-123.053335,5362,12.000651062022222
8622,533,58145,Westbound Kingsway @ E Broadway,BUS ZN,49.263296,-123.099681,3306,50.9368268496603
9989,534,59318,Westbound E 49 Ave @ Tyne St,BUS ZN,49.224736,-123.032636,6193,33.46471625548685
9987,535,59317,Eastbound E 49 Ave @ Kerr St,BUS ZN,49.224659,-123.040479,5862,41.01940743538165
11021,536,61124,Westbound W 16 Ave @ Oak St,BUS ZN,49.257181,-123.12688,2211,24.271002921037407
11020,537,61118,Westbound E 33 Ave @ Main St,BUS ZN,49.240577,-123.101925,3196,34.15262235861331
11023,538,61128,Westbound W 16 Ave @ Arbutus St,BUS ZN,49.257372,-123.153431,1178,22.43651365554761
11022,539,61116,Westbound E 33 Ave @ Fraser St,BUS ZN,49.240373,-123.090765,3674,32.51489021345448
414,540,50410,Southbound Cambie St @ W Hastings St,BUS ZN,49.282211,-123.109799,2883,38.11471624845096
415,541,50411,Eastbound Nelson St @ Cambie St,BUS ZN,49.275788,-123.117719,2578,44.97364609427057
410,542,50406,Eastbound W Pender St @ Thurlow St,BUS ZN,49.287073,-123.119204,2483,99.14896870457852
1385,544,51373,Eastbound W Pender St @ Bute St,BUS ZN,49.288213,-123.123062,2370,28.78437916348586
1387,545,58143,Kootenay Loop @ Bay 8,BUS ZN,49.281026,-123.024952,6457,53.79030790302811
418,546,50414,Southbound Cambie St @ W 12 Ave,BUS ZN,49.260113,-123.115144,2695,33.443604308149425
419,547,50415,Southbound Cambie St @ W 16 Ave,BUS ZN,49.256555,-123.115252,2690,40.850562813109
1382,548,51370,Eastbound W Pender St @ Nicola St,BUS ZN,49.289898,-123.128771,2128,24.048652732573206
1383,549,51371,Eastbound W Pender St @ Broughton St,BUS ZN,49.289364,-123.127117,2204,31.034494885464593
1776,550,51762,Southbound Boundary Rd @ Douglas Rd,BUS ZN,49.27654,-123.02375,6546,98.73251936301097
1779,551,51765,Southbound Boundary Rd @ E 1st Ave,BUS ZN,49.26913,-123.023801,6530,37.869270336467544
1778,552,51764,Southbound Boundary Rd @ Kitchener St,BUS ZN,49.271739,-123.023795,6531,160.09370995540485
1848,553,51834,Eastbound SE Marine Dr @ Nanaimo St,BUS ZN,49.207215,-123.059043,5033,43.908065868955504
12101,554,60006,Eastbound W Broadway @ Columbia St,BUS ZN,49.26302,-123.10905,2885,29.77326058824003
1814,555,51800,Westbound SE Marine Dr @ Gladstone St,BUS ZN,49.208533,-123.062381,4899,19.046268093282855
1817,556,51803,Northbound Nanaimo St @ Fraserview Dr,BUS ZN,49.212049,-123.059294,5035,36.16175371198686
1810,557,51796,Westbound SE Marine Dr @ Kerr St,BUS ZN,49.208162,-123.042926,5792,50.221392502560334
1811,558,51797,Westbound SE Marine Dr @ Jellicoe St,BUS ZN,49.207743,-123.048165,5575,36.46171192387087
1812,559,51798,Westbound SE Marine Dr @ Elliott St,BUS ZN,49.207187,-123.057208,5151,28.902052309155803
1818,560,51804,Northbound Muirfield Dr @ Scarboro Ave,BUS ZN,49.213192,-123.057069,5150,36.04687911025511
1819,561,51805,Northbound Muirfield Dr @ Bobolink Ave,BUS ZN,49.214723,-123.055961,5247,40.03004594135474
1609,562,51597,Westbound W 16 Ave @ Blanca St,BUS ZN,49.258508,-123.21457,8,61.58516025409689
1608,563,51596,Westbound W 16 Ave @ Sasamat St,BUS ZN,49.258432,-123.20978,52,39.522107669908536
1979,564,51962,Eastbound W 49 Ave @ Montgomery St,BUS ZN,49.226598,-123.131458,2001,33.14447722050927
1978,565,51961,Eastbound W 49 Ave @ Hudson St,BUS ZN,49.226708,-123.134675,1865,29.876904957670934
1601,566,51589,Westbound W King Edward Ave @ Balaclava St,BUS ZN,49.250163,-123.176132,624,37.39945385236214
1975,567,51958,Eastbound W 49 Ave @ Marguerite St,BUS ZN,49.226972,-123.144546,1476,31.957441202532255
1974,568,51957,Eastbound W 49 Ave @ Angus Dr,BUS ZN,49.22701,-123.147554,1368,28.25044275100546
1971,569,51954,Eastbound W 49 Ave @ Arbutus St,BUS ZN,49.227103,-123.15547,1124,24.82650216706888
11101,570,61149,Southbound Cambie St @ W 14 Ave,BUS ZN,49.25846,-123.115193,2692,32.45135047068967
1906,571,51892,Westbound E 41 Ave @ Wales St,BUS ZN,49.232871,-123.05213,5453,35.65106057966935
1904,572,51890,Eastbound W 41 Ave @ Highbury St,BUS ZN,49.234704,-123.187956,301,29.638211890878132
1903,573,51889,Eastbound W 41 Ave @ Wallace St,BUS ZN,49.234701,-123.190529,258,29.37307659000669
1901,574,51887,Eastbound SW Marine Dr @ Kullahun Dr,BUS ZN,49.236996,-123.204972,89,56.829330444776936
12730,575,60502,Northbound Denman St @ Comox St,BUS ZN,49.288812,-123.139345,1673,29.15104782972946
12732,576,60504,Eastbound Robson St @ Broughton St,BUS ZN,49.287679,-123.129709,2095,29.51205588384967
12737,577,50133,Westbound W 41st Ave @ Willow St,BUS ZN,49.233946,-123.124174,2352,28.710936473481038
1970,578,51953,Eastbound W 49 Ave @ Yew St,BUS ZN,49.227149,-123.15842,1026,27.193218333986042
12768,579,60529,Westbound Beach Ave @ Cardero St,BUS ZN,49.283023,-123.1416,1575,19.387465201953937
12763,580,60534,Broadway-City Hall Station   @ Bay 6,BUS ZN,49.263181,-123.117852,2593,27.697393461424475
12761,581,60472,Eastbound Sawmill Cres @ River District Crossing,BUS ZN,49.205803,-123.030484,6233,39.81544220534146
12764,582,60535,Broadway-City Hall Station @ Bay 1,BUS ZN,49.26315,-123.116587,2593,66.37742727926435
11643,583,51473,Westbound W Pender St @ Broughton St,BUS ZN,49.289741,-123.12775,2204,31.712579031348543
11646,584,53392,Westbound W Hastings St @ Abbott St,BUS ZN,49.282004,-123.10684,2941,24.734937756962385
1018,585,59042,63 Ave Loop @ Granville St,BUS ZN,49.21392,-123.140853,1641,39.32420184235026
1019,586,51010,Westbound W 64 Ave @ Adera St,BUS ZN,49.213261,-123.144003,1513,36.2984242432006
1016,587,58065,Northbound Seymour St @ W Georgia St,BUS ZN,49.281477,-123.117549,2612,51.90188661291524
1017,588,51008,Southbound Granville St @ W 45 Ave,BUS ZN,49.230342,-123.139857,1668,31.68271628960292
1013,589,51004,Northbound Seymour St @ Davie St,BUS ZN,49.276811,-123.124629,2285,53.24737496986584
11002,590,61143,Bus Stop @ Spanish Banks Loop,BUS ZN,49.276328,-123.215494,26,77.39235823407174
11007,591,61106,Eastbound E 33 Ave @ Knight St,BUS ZN,49.240146,-123.075958,4265,31.973918317409023
11009,592,61108,Eastbound E 33 Ave @ Victoria Dr,BUS ZN,49.239826,-123.06484,4789,40.84277953348109
439,593,50435,Eastbound Powell St @ Victoria Dr,BUS ZN,49.284771,-123.065065,4778,31.727884137719855
437,594,50433,Eastbound Powell St @ Commercial Dr,BUS ZN,49.283885,-123.069837,4529,35.16234926805228
435,595,50431,Eastbound Powell St @ Clark Dr,BUS ZN,49.283029,-123.076625,4257,30.152942957309655
433,596,50429,Eastbound Powell St @ Glen Dr,BUS ZN,49.282672,-123.081697,4061,33.75099599670326
430,597,50426,Eastbound E Cordova St @ Dunlevy Ave,BUS ZN,49.282136,-123.094846,3484,35.546764705774464
431,598,50427,Eastbound E Cordova St @ Princess Ave,BUS ZN,49.282067,-123.091063,3617,27.24869121659549
11348,600,51003,Northbound Cambie St @ W 42 Ave,BUS ZN,49.232875,-123.115999,2640,41.22156054224397
11349,601,50999,Langara-49th Station @ Bay 1,BUS ZN,49.226473,-123.116241,2627,44.013440611815994
2241,602,52219,Westbound SW Marine Dr @ Laurel St,BUS ZN,49.206184,-123.126813,2246,38.098604495016716
12691,603,51793,Southbound Matheson Cres @ Champlain Cres,BUS ZN,49.210359,-123.027535,6396,30.296605443397077
12690,604,51839,Northbound Matheson Cres @ SE Marine Dr,BUS ZN,49.208301,-123.030733,6246,29.038007022249893
1051,605,51042,Southbound Renfrew St @ E 1st Ave,BUS ZN,49.269159,-123.044397,5729,38.91039173304282
1052,606,51043,Southbound Renfrew St @ E 4th Ave,BUS ZN,49.266425,-123.044405,5726,29.11967910001094
1054,607,51045,Southbound Renfrew St @ E 8th Ave,BUS ZN,49.262644,-123.044459,5721,36.57673951848104
1055,608,51046,Southbound Renfrew St @ E Broadway,BUS ZN,49.261461,-123.04446,5720,55.759827897816606
1057,609,51048,Southbound Renfrew St @ Grandview Hwy,BUS ZN,49.257863,-123.044471,5715,36.7502222108141
9366,610,51006,Northbound Seymour St @ Nelson St,BUS ZN,49.278835,-123.121579,2414,39.81051358681914
1832,612,51818,29th Avenue Station @ Bay 1,BUS ZN,49.244269,-123.045608,5663,41.45881882335822
1833,613,51819,Southbound Clarendon St @ E 41 Ave,BUS ZN,49.232504,-123.055437,5266,35.47688292586718
1830,614,51816,Northbound Clarendon St @ E 37 Ave,BUS ZN,49.237621,-123.055365,5263,27.148815181614818
1835,615,51821,Southbound Elliott St @ E 45 Ave,BUS ZN,49.229145,-123.054924,5281,26.16525599452632
1838,616,51824,Southbound Elliott St @ E 49 Ave,BUS ZN,49.224553,-123.054884,5287,30.64918599690156
1839,617,51825,Southbound Elliott St @ E 51 Ave,BUS ZN,49.222288,-123.054911,5286,28.919505999485104
2155,618,52135,Eastbound SE Marine Dr @ St. George St,BUS ZN,49.210918,-123.093606,3566,23.253493117237426
2156,619,52136,Eastbound SE Marine Dr @ Fraser St,BUS ZN,49.210909,-123.090507,3623,43.504389643350876
2152,620,52132,Eastbound SE Marine Dr @ Ontario St,BUS ZN,49.21214,-123.106006,3006,37.59970878611375
2153,621,52133,Eastbound SE Marine Dr @ Main St,BUS ZN,49.210807,-123.101511,3143,57.706126714556326
2158,622,52138,Eastbound SE Marine Dr @ Ross St,BUS ZN,49.211036,-123.083514,3940,22.349378446306027
1959,623,51942,Southbound Burrard St @ W 3rd Ave,BUS ZN,49.268549,-123.145798,1458,40.79065913999545
1990,624,51973,Eastbound E 49 Ave @ St. George St,BUS ZN,49.225455,-123.093656,3535,31.255202793575897
1483,625,51471,Westbound W Pender St @ Thurlow St,BUS ZN,49.287731,-123.120865,2483,41.925555032403786
1482,626,51470,Kootenay Loop @ Bay 6,BUS ZN,49.281212,-123.026407,6457,53.76367252960927
1481,627,51469,Westbound Hastings St @ Esmond Ave,BUS ZN,49.281222,-123.021845,6549,125.20048640658426
1487,629,51475,Westbound W Georgia St @ Denman St,BUS ZN,49.292951,-123.134018,1930,45.52343128455616
1484,630,51472,Westbound W Pender St @ Bute St,BUS ZN,49.288565,-123.123694,2370,31.507419051197804
1488,631,51476,Westbound W Georgia St @ Gilford St,BUS ZN,49.294006,-123.13563,1862,50.041693227623405
10611,632,59837,Northbound Main St @ E 22 Ave,BUS ZN,49.251452,-123.100866,3224,32.27372667799611
1271,633,51261,Northbound Mackenzie St @ W 34 Ave,BUS ZN,49.241595,-123.170144,740,26.863200284637756
10619,634,58613,Westbound E Broadway @ Fraser St,BUS ZN,49.262593,-123.09009,3641,69.8477413786588
519,635,50515,Westbound Powell St @ Jackson Ave,BUS ZN,49.283146,-123.093725,3572,28.91552131786153
518,636,50514,Westbound Powell St @ Heatley Ave,BUS ZN,49.283076,-123.089941,3710,37.74527308274768
511,637,50507,Westbound E Hastings St @ Dunlevy Ave,BUS ZN,49.281356,-123.095847,3483,36.76743189889738
510,638,50506,Westbound E Hastings St @ Jackson Ave,BUS ZN,49.281321,-123.093904,3568,37.272834179303
512,639,50508,Westbound Powell St @ Commercial Dr,BUS ZN,49.283837,-123.070862,4529,39.60358243937904
517,640,50513,Westbound Powell St @ Hawks Ave,BUS ZN,49.28303,-123.087522,3809,34.260788270102324
516,641,50512,Westbound Powell St @ Glen Dr,BUS ZN,49.282792,-123.081659,4061,35.00106240181595
1226,642,51217,Northbound Commercial Dr @ Findlay St,BUS ZN,49.254682,-123.068394,4649,56.275754759256486
1225,643,51216,Northbound Victoria Diversion @ Victoria Dr,BUS ZN,49.253274,-123.066572,4684,37.57677644195224
1224,644,51215,Northbound Victoria Dr @ E 22 Ave,BUS ZN,49.250596,-123.064898,4805,35.74361005965221
627,645,50621,Southbound Cambie St @ W 41 Ave,BUS ZN,49.234,-123.116425,2641,54.45602276296757
1222,646,51213,Northbound Victoria Dr @ E 26 Ave,BUS ZN,49.247959,-123.064952,4801,37.87239826581901
1221,647,51212,Northbound Victoria Dr @ E 43 Ave,BUS ZN,49.231503,-123.065432,4759,32.12054741381845
1220,648,51211,Northbound Victoria Dr @ E 45 Ave,BUS ZN,49.229847,-123.065483,4753,43.215978077679516
628,649,50622,Westbound Robson St @ Hamilton St,BUS ZN,49.279145,-123.116259,2659,43.02559079539103
1229,650,51220,Northbound Commercial Dr @ E 12 Ave,BUS ZN,49.259948,-123.069673,4557,44.5906516750208
1228,651,51219,Northbound Commercial Dr @ E 14 Ave,BUS ZN,49.258015,-123.069745,4553,30.783256493330672
8297,652,58054,Heather Square @ Bay 2,BUS ZN,49.266296,-123.120135,2488,26.298097773216647
10431,653,59930,Southbound Hudson St @ SW Marine Dr,BUS ZN,49.202765,-123.134919,1876,33.680696836437825
2239,654,52217,Westbound SW Marine Dr @ Ash St,BUS ZN,49.209141,-123.119749,2476,44.77878068920458
2231,655,52209,Westbound SE Marine Dr @ Chester St,BUS ZN,49.211147,-123.089925,3699,29.395858630725666
2233,656,52211,Westbound SE Marine Dr @ Prince Edward St,BUS ZN,49.211024,-123.097713,3364,26.025910514760007
2232,657,52210,Westbound SE Marine Dr @ Buscombe St,BUS ZN,49.211151,-123.095708,3475,28.229018961227492
2235,658,52213,Westbound SW Marine Dr @ Ontario St,BUS ZN,49.212459,-123.107012,2961,38.3787479013389
2234,659,52212,Westbound SE Marine Dr @ Main St,BUS ZN,49.211554,-123.103214,3144,80.59476584644219
2236,660,52214,Westbound SW Marine Dr @ Manitoba St,BUS ZN,49.212212,-123.110409,2852,32.99972409466294
1631,661,51619,Southbound Champlain Cres @ Langford Ave,BUS ZN,49.214195,-123.02994,6281,166.26769726067943
7025,662,56958,Northbound Knight St Bridge Offramp @ SE Marine Dr,BUS ZN,49.210846,-123.075497,4302,27.982262256302427
1038,663,51029,Northbound Arbutus St @ Nanton Ave,BUS ZN,49.247961,-123.153085,1176,38.620925662397944
1039,664,51030,Northbound Arbutus St @ W King Edward Ave,BUS ZN,49.251937,-123.152909,1180,45.832748358093525
1032,665,51023,Northbound West Blvd @ W 39 Ave,BUS ZN,49.236779,-123.155392,1105,39.17635676535614
1033,666,51024,Northbound West Blvd @ W 37 Ave,BUS ZN,49.238609,-123.155335,1109,35.83192730328341
1030,667,51021,Northbound West Blvd @ W 43 Ave,BUS ZN,49.232961,-123.155537,1094,27.9609044598756
1031,668,51022,Northbound West Blvd @ W 41 Ave,BUS ZN,49.2349,-123.155429,1099,37.62050545507641
1036,669,51027,Northbound Arbutus St @ W 33 Ave,BUS ZN,49.242436,-123.153359,1172,38.46256502106944
1037,670,51028,Northbound Arbutus St @ Valley Dr,BUS ZN,49.245478,-123.153186,1174,32.8398769855011
1035,671,51026,Northbound Arbutus St @ Quilchena Cres,BUS ZN,49.241393,-123.153894,1170,31.709034050311843
11069,672,51938,Westbound NW Marine Dr @ Tolmie St,BUS ZN,49.275093,-123.212054,49,30.65293264786315
11068,673,61133,Southbound Trimble St @ Belmont Ave,BUS ZN,49.273327,-123.205803,95,36.09066527656589
11061,674,61134,Westbound E 33 Ave @ Inverness St,BUS ZN,49.240296,-123.080645,4073,30.024851667114568
11060,675,61135,Eastbound E 33 Ave @ Inverness St,BUS ZN,49.240161,-123.079787,4084,25.81794698624176
11063,676,61092,Eastbound W 16 Ave @ Vine St,BUS ZN,49.25729,-123.157508,1050,29.01359905192473
11062,677,61103,Eastbound E 33 Ave @ Prince Edward St,BUS ZN,49.240343,-123.096513,3426,29.468016757341378
11065,678,51935,Northbound NW Marine Dr @ Belmont Ave,BUS ZN,49.274065,-123.205593,95,47.45078345137859
11064,679,61105,Eastbound E 33 Ave @ Somerville St,BUS ZN,49.240204,-123.085349,3851,25.801834390760362
11067,680,61125,Westbound W 15 Ave @ Birch St,BUS ZN,49.257964,-123.134406,1917,35.86969815628931
11066,681,51906,Eastbound NW Marine Dr @ Tolmie St,BUS ZN,49.274742,-123.211352,49,33.528085047566655
11495,689,59991,Westbound Expo Blvd @ Abbott St,BUS ZN,49.278791,-123.108015,2927,34.08555810048273
10813,690,51703,Southbound Rupert St @ E 1st Ave,BUS ZN,49.269052,-123.033883,6144,47.15883214348527
10812,691,59583,Southbound Main St @ E 49 Ave,BUS ZN,49.225333,-123.10178,3180,37.98912076675904
10810,692,50478,Northbound Cambie St @ W 18 Ave,BUS ZN,49.255125,-123.115019,2686,27.17591535332567
10816,693,59581,Northbound Main St @ E 16 Ave,BUS ZN,49.256943,-123.101068,3208,41.83437383854416
10815,694,51704,Southbound Rupert St @ E 3rd Ave,BUS ZN,49.267232,-123.033871,6142,36.37497426832552
10814,695,59580,Southbound Main St @ E 2nd Ave,BUS ZN,49.268688,-123.100898,3241,54.38997293454744
1850,696,51836,Eastbound SE Marine Dr @ Jellicoe St,BUS ZN,49.207592,-123.047214,5575,34.653562210756306
1851,697,51837,Eastbound SE Marine Dr @ Kerr St,BUS ZN,49.207748,-123.044803,5792,190.23112355699027
1852,698,51838,Eastbound SE Marine Dr @ Fieldstone Ave,BUS ZN,49.208333,-123.035248,6013,186.8730534386494
1856,699,51842,Burrard Station @ Bay 4,BUS ZN,49.286899,-123.12119,2458,38.26693499484526
1857,700,51843,Burrard Station @ Bay 3,BUS ZN,49.286391,-123.121757,2416,18.45232111761309
604,701,50598,Southbound Blanca St @ W 4th Ave,BUS ZN,49.268693,-123.215183,20,46.799748422193254
607,702,50601,Westbound University Blvd @ Blanca St,BUS ZN,49.264016,-123.215915,14,53.28493630109404
606,703,50600,Blanca Loop @ Bay 2,BUS ZN,49.265146,-123.215302,15,39.453572074783374
601,704,50595,Westbound W 4th Ave @ Trimble St,BUS ZN,49.269028,-123.206426,90,41.98142416747225
1208,705,51199,Westbound Kingsway @ E 12 Ave,BUS ZN,49.260171,-123.096663,3448,37.24092092697656
602,706,50596,Westbound W 4th Ave @ Sasamat St,BUS ZN,49.269083,-123.209399,65,37.35849508741067
1204,707,51195,Westbound Kingsway @ Windsor St,BUS ZN,49.254147,-123.084079,3928,44.33428576436717
1207,708,51198,Westbound Kingsway @ St. George St,BUS ZN,49.25817,-123.093585,3578,58.46496569770586
1206,709,51197,Westbound Kingsway @ Fraser St,BUS ZN,49.257027,-123.090227,3697,44.963354458133075
1203,712,51194,Westbound Kingsway @ Inverness St,BUS ZN,49.252366,-123.080257,4113,43.489723161033375
1202,713,51193,Westbound Kingsway @ Knight St,BUS ZN,49.25051,-123.076585,4282,38.38134092426322
8277,714,58044,Westbound E Broadway @ Lillooet St,BUS ZN,49.262004,-123.039504,5916,36.34603506901825
935,715,50927,Westbound W 10 Ave @ Fir St,BUS ZN,49.262724,-123.14034,1616,51.2236277006105
461,716,50457,Northbound Oak St @ W 22 Ave,BUS ZN,49.251967,-123.127311,2192,29.160711200216276
2059,717,52042,Westbound W 49 Ave @ Adera St,BUS ZN,49.227081,-123.144091,1511,38.767339372999615
463,718,50459,Northbound Oak St @ W 17 Ave,BUS ZN,49.256575,-123.127109,2208,39.064869407765514
462,719,50458,Northbound Oak St @ W 20 Ave,BUS ZN,49.253935,-123.127236,2198,46.401405934581405
10799,720,50475,King Edward Station @ Bay 2,BUS ZN,49.249415,-123.115245,2674,48.93861009356357
12334,721,59860,Eastbound Davie St @ Richards St,BUS ZN,49.275982,-123.124529,2330,25.373957067820374
12330,722,60103,Northbound Cambie St @ Nelson St,BUS ZN,49.276256,-123.117748,2578,31.8633474972849
12331,723,60104,Northbound Cambie St @ Robson St,BUS ZN,49.278318,-123.114655,2697,24.246790000290535
740,724,50733,Westbound E Hastings St @ Victoria Dr,BUS ZN,49.281297,-123.066124,4769,43.32264783386865
742,725,50735,Northbound Nanaimo St @ E Hastings St,BUS ZN,49.281413,-123.056378,5226,32.37988371512864
744,726,50737,Dunbar Loop @ Bay 1,BUS ZN,49.234424,-123.185469,378,38.895035712775176
745,727,50738,Marpole Loop @ Bay 1,BUS ZN,49.202789,-123.133802,1876,76.90539302467984
746,728,50739,Eastbound SW Marine Dr @ Oak St,BUS ZN,49.204348,-123.130671,2059,33.303243947967175
747,729,50740,Northbound Oak Cloverleaf @ SW Marine Dr,BUS ZN,49.205921,-123.128497,2179,68.84582147101652
749,730,50742,Northbound Oak St @ W 70 Ave,BUS ZN,49.208777,-123.13011,2068,35.70115722031149
1050,731,51041,Southbound Renfrew St @ Kitchener St,BUS ZN,49.271997,-123.04431,5734,33.46081489633078
1053,732,51044,Southbound Renfrew St @ E 5th Ave,BUS ZN,49.265468,-123.044419,5724,29.030049959365037
1058,733,51049,Southbound Renfrew St @ E 15 Ave,BUS ZN,49.255993,-123.044447,5712,37.212606765100865
1059,734,51050,Southbound Renfrew St @ E 17 Ave,BUS ZN,49.254177,-123.044433,5708,19.587243859418674
11047,735,61119,Westbound E 33 Ave @ Ontario St,BUS ZN,49.240633,-123.105056,3011,21.619908478848828
11046,736,50589,Westbound W 4th Ave @ Collingwood St,BUS ZN,49.268649,-123.182096,483,31.992140597152876
11044,737,61130,Westbound W 16 Ave @ Trafalgar St,BUS ZN,49.257758,-123.165382,879,39.77538330293432
11043,738,61127,Westbound W 16 Ave @ Burrard St,BUS ZN,49.257239,-123.146565,1440,42.98996469746068
11042,739,61131,Westbound W 16 Ave @ Blenheim St,BUS ZN,49.257961,-123.178447,554,32.545616154299715
11041,740,61129,Westbound W 16 Ave @ Vine St,BUS ZN,49.257435,-123.15827,1050,28.64181424745978
11040,741,61122,Westbound W 16 Ave @ Heather St,BUS ZN,49.257062,-123.120455,2500,29.10207957403633
11049,742,61101,Eastbound E 33 Ave @ Ontario St,BUS ZN,49.240505,-123.104966,3011,27.88389928848615
11048,743,61111,Westbound E 33 Ave @ Nanaimo St,BUS ZN,49.239843,-123.059192,5077,36.30319292217791
8649,744,58620,Eastbound N Grandview Hwy @ Commercial Dr,BUS ZN,49.263172,-123.068542,4619,8.98633365518381
8643,746,51474,Westbound W Georgia St @ Cardero St,BUS ZN,49.290935,-123.130883,2060,47.503364434848486
8640,747,58239,Westbound W Broadway @ Granville St,BUS ZN,49.26373,-123.139771,1618,90.14872422194816
11302,748,61393,Waterfront Station Canada Line @ Platform 2,ZN 1,49.285139,-123.114206,2725,31.478374790452026
11303,749,61394,Waterfront Station @ Canada Line,ZN 1,49.285093,-123.114139,2725,31.229725326038643
1700,750,51686,Northbound Rupert St @ E 3rd Ave,BUS ZN,49.267805,-123.033576,6142,30.84032062217057
1702,751,51688,Northbound Rupert St @ Kitchener St,BUS ZN,49.272547,-123.033591,6149,31.18424345283253
1705,752,51691,Eastbound Adanac St @ Rupert St,BUS ZN,49.277386,-123.03308,6159,35.8509854702933
12535,753,60277,Northbound Seymour St @ Robson St,BUS ZN,49.28102,-123.11824,2540,53.948478987694614
1707,754,51693,Eastbound Adanac St @ Kootenay St,BUS ZN,49.277369,-123.024867,6451,60.030849710681736
1600,755,51588,Westbound W King Edward Ave @ Trafalgar St,BUS ZN,49.248213,-123.165826,868,36.1523623156561
10872,758,50990,Southbound Cambie St @ W 62 Ave,BUS ZN,49.213825,-123.117204,2613,36.96933902992104
1605,759,51593,Westbound W 16 Ave @ Wallace St,BUS ZN,49.258162,-123.191535,255,39.440122418610514
1607,760,51595,Westbound W 16 Ave @ Discovery St,BUS ZN,49.258337,-123.203675,108,38.8533024140593
2118,761,52099,Eastbound W Broadway @ Heather St,BUS ZN,49.263212,-123.120173,2510,24.672226784793516
2110,762,52092,Westbound Lougheed Hwy @ Boundary Loop,BUS ZN,49.265243,-123.02541,6450,33.398443094266
2111,763,58621,Southbound N Grandview Hwy @ E 8th Ave,BUS ZN,49.262833,-123.067725,4619,75.37199489746307
10492,764,59992,Northbound Pat Quinn Way @ Expo Blvd,BUS ZN,49.278392,-123.107518,2927,28.49223115918715
881,765,50874,Eastbound W Broadway @ Heather St,BUS ZN,49.263205,-123.119257,2510,44.5796479738601
880,766,50873,Eastbound W Broadway @ Willow St,BUS ZN,49.26323,-123.121293,2422,38.76111802769683
887,767,50880,Eastbound E Broadway @ Kingsway St,BUS ZN,49.262778,-123.099816,3306,24.520129552649728
356,768,50352,Eastbound W 4th Ave @ Wallace St,BUS ZN,49.26852,-123.190183,287,39.00138127330882
354,769,50350,Eastbound W 4th Ave @ 4100 Block,BUS ZN,49.268679,-123.197617,149,134.509772082174
353,770,50349,Eastbound W 4th Ave @ Trimble St,BUS ZN,49.268907,-123.2064,90,39.751159434185425
351,771,50347,Eastbound W 4th Ave @ Tolmie St,BUS ZN,49.268974,-123.21149,41,33.44403245881733
1269,772,51259,Northbound Mackenzie St @ W 38 Ave,BUS ZN,49.237919,-123.170182,731,39.97453302030275
669,773,50662,Northbound Slocan St @ Kingsway,BUS ZN,49.24028,-123.053651,5356,40.4814080294883
668,774,50661,Eastbound Kingsway @ Slocan St,BUS ZN,49.23969,-123.053631,5356,44.603716855086276
667,775,50660,Eastbound Kingsway @ Nanaimo St,BUS ZN,49.241611,-123.057829,5094,36.315789410510696
666,776,50659,Eastbound Kingsway @ Victoria Dr,BUS ZN,49.244769,-123.064604,4798,58.153295741001536
665,777,50658,Northbound Victoria Dr @ Kingsway,BUS ZN,49.244828,-123.065039,4798,37.4894012593424
664,778,50657,Northbound Victoria Dr @ E 32 Ave,BUS ZN,49.241893,-123.065138,4792,42.982454333492775
663,779,50656,Northbound Victoria Dr @ E 33 Ave,BUS ZN,49.24032,-123.065188,4789,34.25538020855502
1266,780,51256,Southbound Victoria Dr @ E 64 Ave,BUS ZN,49.21118,-123.066167,4700,30.900580268294092
1265,781,51255,Southbound Victoria Dr @ Thornhill Dr,BUS ZN,49.213015,-123.066138,4704,30.95820310803418
660,782,50653,Northbound Victoria Dr @ E 39 Ave,BUS ZN,49.234784,-123.065348,4773,17.054491906198265
1911,783,51897,Westbound SW Marine Dr @ Camosun St,BUS ZN,49.235286,-123.197663,169,70.66883779545098
1910,784,51896,Southbound Crown St @ SW Marine Dr,BUS ZN,49.234042,-123.193856,210,38.035387347927816
1912,785,51898,Westbound SW Marine Dr @ Kullahun Dr,BUS ZN,49.237441,-123.205607,89,56.36200713165734
12775,786,60540,Westbound Kingsway @ Dumfries St,BUS ZN,49.249256,-123.073752,4419,44.16211303262171
12770,787,60530,Eastbound Pacific St @ Jervis St,BUS ZN,49.280513,-123.137988,1736,20.820724930425772
8040,788,60826,Burrard Station @ Platform 2,ZN 1,49.285634,-123.119515,2529,13.682422223273475
8042,789,57967,Stadium-Chinatown Station @ Platform 2,ZN 1,49.279178,-123.109213,2906,69.28443581323964
769,792,50762,Northbound Granville St @ Park Dr,BUS ZN,49.216886,-123.140114,1648,13.540110692621187
762,793,50755,Westbound SW Marine Dr @ Montcalm St,BUS ZN,49.204167,-123.137246,1784,51.910278329722615
763,794,50756,Westbound SW Marine Dr @ Granville St,BUS ZN,49.205047,-123.139869,1626,55.22265158568223
760,795,50753,Northbound Oak St @ W 43 Ave,BUS ZN,49.232346,-123.128003,2161,29.7473335332436
761,796,50754,Northbound Oak St @ W 41 Ave,BUS ZN,49.23366,-123.127934,2164,33.071833526336945
766,797,50759,Northbound Granville St @ W 67 Ave,BUS ZN,49.211168,-123.140317,1638,22.572754012549098
767,798,50760,Northbound Granville St @ W 64 Ave,BUS ZN,49.213646,-123.140212,1641,39.465394637777855
765,799,50758,Northbound Granville St @ W 70 Ave,BUS ZN,49.208885,-123.14035,1633,31.67524205716963
1078,800,51069,Westbound E 41 Ave @ Gladstone St,BUS ZN,49.232961,-123.062675,4902,41.89937515546197
1079,801,51070,Eastbound E 41 Ave @ Victoria Dr,BUS ZN,49.232565,-123.065972,4767,38.36107250256978
1076,802,51067,Westbound E 41 Ave @ Clarendon St,BUS ZN,49.232902,-123.055955,5266,42.706293702418314
1074,803,51065,Southbound Clarendon St @ E 38 Ave,BUS ZN,49.235635,-123.05558,5262,27.8961812330547
1533,804,51521,Eastbound E King Edward Ave @ Fraser St,BUS ZN,49.24856,-123.08963,3685,38.117206836548775
1531,805,51519,Eastbound E King Edward Ave @ Prince Edward St,BUS ZN,49.248638,-123.096185,3439,42.570198883391505
1530,806,51518,Eastbound E King Edward Ave @ Main St,BUS ZN,49.248697,-123.100559,3216,34.63059447998417
12518,807,60251,Eastbound SW Marine Dr @ Hudson St,BUS ZN,49.20317,-123.135556,1876,57.85125274692144
10857,808,50992,Northbound Cambie St @ W 64 Ave,BUS ZN,49.212634,-123.116832,2609,39.337171964697426
10853,809,60996,Northbound Cambie St @ W 45 Ave,BUS ZN,49.230066,-123.116096,2632,33.02624937989001
1043,810,51034,Northbound Arbutus St @ W 15 Ave,BUS ZN,49.258543,-123.152972,1179,37.87841778371867
1041,811,51032,Northbound Arbutus St @ W 20 Ave,BUS ZN,49.254791,-123.15286,1213,43.22384800657103
12187,812,60020,Eastbound E 49 Ave @ Doman St,BUS ZN,49.224634,-123.036296,6018,24.094603252904744
12186,813,60022,Westbound E 49 Ave @ Doman St,BUS ZN,49.224782,-123.036952,6018,26.307794151824442
12185,814,60025,Northbound Champlain Cres @ E 54 Ave,BUS ZN,49.219894,-123.032299,6183,22.566303445202866
12184,815,60024,Southbound Champlain Cres @ E 54 Ave,BUS ZN,49.219811,-123.032506,6183,33.426063330763256
12183,816,60023,Southbound Arlington St @ E 49 Ave,BUS ZN,49.222808,-123.028887,6365,73.34420668978018
1046,817,51037,Southbound Renfrew St @ E Hastings St,BUS ZN,49.280776,-123.044219,5745,39.676754657676085
2138,818,52118,Eastbound W 70 Ave @ French St,BUS ZN,49.208535,-123.138831,1687,25.986012920538847
2139,819,52119,Southbound Hudson St @ W 70 Ave,BUS ZN,49.208213,-123.1347,1889,36.30931223255308
11724,820,61660,Eastbound W Broadway @ Yew St,BUS ZN,49.263761,-123.154831,1122,34.56391710088833
2079,821,52062,Southbound Fir St @ W 2nd Ave,BUS ZN,49.269373,-123.140897,1628,37.19686426507541
2078,822,52061,Westbound W 2nd Ave @ Anderson St,BUS ZN,49.26952,-123.138092,1742,21.614619314014266
1262,823,51252,Southbound Victoria Dr @ Upland Dr,BUS ZN,49.217768,-123.066039,4714,33.941695753315635
1261,824,51251,Southbound Victoria Dr @ Argyle Dr,BUS ZN,49.219611,-123.065976,4717,71.11896050530689
1799,825,51785,Westbound Vanness Ave @ Boundary Rd,BUS ZN,49.234733,-123.024194,6526,45.58088023282481
1260,826,51250,Southbound Victoria Dr @ E 53 Ave,BUS ZN,49.221481,-123.065964,4722,26.20430085978726
661,832,50654,Northbound Victoria Dr @ E 38 Ave,BUS ZN,49.236203,-123.065307,4777,32.10007651727059
2077,833,52060,Westbound Lameys Mill Rd @ 1300 Block,BUS ZN,49.267336,-123.134423,1857,66.71150317371664
2076,834,52059,Westbound Lameys Mill Rd @ Alder Crossing,BUS ZN,49.266831,-123.132521,1996,37.774678815558715
1024,835,51015,Northbound West Blvd @ W 54 Ave,BUS ZN,49.221951,-123.151884,1237,34.85352527429037
1240,836,51231,Northbound Commercial Diversion @ Venables St,BUS ZN,49.277014,-123.069433,4585,41.37581795980049
1535,837,51523,Eastbound E King Edward Ave @ Glen Dr,BUS ZN,49.248473,-123.081441,4002,31.932365992669073
1242,838,51233,Northbound Commercial Dr @ E Pender St,BUS ZN,49.280571,-123.070272,4524,33.47927464268538
1245,839,51235,Southbound Commercial Dr @ Frances St,BUS ZN,49.279104,-123.070545,4523,31.278367297609925
1247,840,51237,Southbound Commercial Dr @ Parker St,BUS ZN,49.275512,-123.06961,4584,27.32044404108893
1246,841,51236,Southbound Commercial Diversion @ Adanac St,BUS ZN,49.277328,-123.069881,4544,28.72750119835841
1249,842,51239,Southbound Commercial Dr @ Kitchener St,BUS ZN,49.271878,-123.069692,4579,29.635270693849247
1248,843,51238,Southbound Commercial Dr @ William St,BUS ZN,49.273685,-123.069647,4582,29.096181762727852
1027,844,51018,Northbound West Blvd @ W 49 Ave,BUS ZN,49.227498,-123.155196,1124,38.635277537765454
1539,845,51527,Northbound Nanaimo St @ Brock St,BUS ZN,49.244157,-123.056503,5159,21.52028373741248
1538,846,51526,Northbound Nanaimo St @ Kingsway,BUS ZN,49.242099,-123.057651,5094,41.40354816368436
10424,847,50024,Westbound Davie St @ Richards St,BUS ZN,49.276179,-123.124555,2330,41.66608825126469
11532,848,58144,Northbound Granville St @ Smithe St,BUS ZN,49.280784,-123.120537,2441,82.48004879822689
11537,849,52032,Westbound W 49 Ave @ Manitoba St,BUS ZN,49.225913,-123.109025,2908,46.79685791499853
11535,850,61519,Northbound Seymour St @ Dunsmuir St,BUS ZN,49.282782,-123.115596,2678,25.72231633113592
11534,851,59558,Westbound Dunsmuir St @ Cambie St,BUS ZN,49.280837,-123.112004,2782,45.377097435940314
238,852,50236,Southbound Main St @ E 5th Ave,BUS ZN,49.265849,-123.100989,3236,40.30769975690295
10064,853,59390,Westbound Pacific St @ Jervis St,BUS ZN,49.280964,-123.138406,1736,38.033619682267165
12375,854,58099,Burrard Station @ Bay 5,BUS ZN,49.285975,-123.118965,2529,56.16150580384768
9063,855,58529,Eastbound W Pender St @ Abbott St,BUS ZN,49.280892,-123.106976,2930,46.70327922493082
704,856,50697,Southbound Victoria Dr @ Kingsway,BUS ZN,49.244809,-123.0653,4798,40.648690153396984
705,857,50698,Southbound Victoria Dr @ E 31 Ave,BUS ZN,49.24251,-123.065373,4794,34.227785252419494
700,858,50693,Southbound Slocan St @ Norquay St,BUS ZN,49.242186,-123.052022,5456,38.87169371979803
701,859,50694,Westbound Kingsway @ Slocan St,BUS ZN,49.240309,-123.054367,5331,13.305894334020302
702,860,50695,Westbound Kingsway @ Nanaimo St,BUS ZN,49.242199,-123.0585,5094,45.2650873998182
11881,861,61759,Northbound Burrard St @ Comox St,BUS ZN,49.280758,-123.126431,2215,53.90171720643207
1982,862,51965,Eastbound W 49 Ave @ Heather St,BUS ZN,49.226275,-123.123158,2363,31.917762400354377
1980,863,51963,Eastbound W 49 Ave @ Oak St,BUS ZN,49.22645,-123.12776,2152,40.69322155925028
1602,864,51590,Westbound W King Edward Ave @ Blenheim St,BUS ZN,49.250183,-123.179077,546,40.76038721175152
12572,865,60336,Eastbound E Cordova St @ Heatley Ave,BUS ZN,49.28202,-123.089076,3708,30.0096531012874
12570,866,60335,Eastbound E King Edward Ave @ Ontario St,BUS ZN,49.248771,-123.104633,3025,25.90129109927198
12619,867,60359,Northbound Macdonald St @ W 13 Ave,BUS ZN,49.260225,-123.168239,785,27.032009699210626
12616,868,60375,Westbound Great Northern Way @ Carolina Street,BUS ZN,49.266868,-123.091178,3656,22.7364263624897
1341,869,51330,Northbound Knight St @ E 53 Ave,BUS ZN,49.221998,-123.077282,4213,24.65643271958004
862,870,50855,Southbound Granville St @ W 47 Ave,BUS ZN,49.228469,-123.139921,1666,33.08308362326909
11706,871,61031,Westbound W Georgia St @ Granville St,BUS ZN,49.282879,-123.118524,2538,49.18773388219933
121,872,50121,Southbound Macdonald St @ Alamein Ave,BUS ZN,49.249858,-123.167913,811,24.81296660974089
122,873,50122,Westbound W King Edward Ave @ Macdonald St,BUS ZN,49.248641,-123.168633,810,78.49691178117894
123,874,50123,Westbound W King Edward Ave @ Puget Dr,BUS ZN,49.249627,-123.170432,721,51.698601563747765
124,875,50124,Southbound Quesnel Dr @ W King Edward Ave,BUS ZN,49.249603,-123.171914,702,45.965435287916826
126,876,50126,Southbound Mackenzie St @ W 29 Ave,BUS ZN,49.245848,-123.170308,746,30.03077243038677
128,877,50128,Southbound Mackenzie St @ W 33 Ave,BUS ZN,49.241997,-123.170345,741,35.788722513503615
1187,878,51178,Southbound Joyce St @ Kingsway,BUS ZN,49.233838,-123.036343,6076,49.10317122535199
1182,879,51173,Westbound Kingsway @ Lincoln St,BUS ZN,49.232284,-123.026273,6411,19.18483191275012
1183,880,51174,Westbound Kingsway @ Melbourne St,BUS ZN,49.232118,-123.029643,6308,29.60475388367322
10542,881,50067,Eastbound Cornwall Ave @ Balsam St,BUS ZN,49.272582,-123.159332,1016,27.420979979820288
8742,883,58392,Eastbound Henning Dr @ Boundary Rd,BUS ZN,49.263596,-123.022725,6520,143.74313677504887
933,885,50925,Westbound W Broadway @ Heather St,BUS ZN,49.263401,-123.120227,2510,29.456362521676667
1519,886,51507,Eastbound W King Edward Ave @ Granville St,BUS ZN,49.249267,-123.138678,1699,32.37673523781729
1515,887,51503,Eastbound W King Edward Ave @ Maple Cres,BUS ZN,49.250503,-123.151127,1246,45.36909700369063
1514,888,51502,Eastbound W King Edward Ave @ Arbutus St,BUS ZN,49.251448,-123.153365,1180,22.515176209530388
1517,889,51505,Eastbound W King Edward Ave @ Marguerite St,BUS ZN,49.249352,-123.144254,1487,31.60951224008788
1511,890,51499,Eastbound W King Edward Ave @ Brakenridge St,BUS ZN,49.248553,-123.162016,944,28.875685543115775
1510,891,51498,Eastbound W King Edward Ave @ Puget Dr,BUS ZN,49.247954,-123.167306,809,43.00858957019501
1513,892,51501,Eastbound W King Edward Ave @ Yew St,BUS ZN,49.251217,-123.155187,1087,42.217206983683184
1512,893,51500,Eastbound W King Edward Ave @ Valley Dr,BUS ZN,49.249818,-123.158783,1018,35.96927538337057
11553,894,54828,Southbound Howe St @ W Pender St,BUS ZN,49.284791,-123.116768,2605,74.1933591246055
263,895,59538,Southbound Main St @ E 59 Ave,BUS ZN,49.216491,-123.102076,3166,30.009290282350534
262,896,50260,Southbound Main St @ E 56 Ave,BUS ZN,49.218969,-123.102003,3171,37.568790791348455
261,897,50259,Southbound Main St @ E 54 Ave,BUS ZN,49.22075,-123.101949,3175,35.59561407732594
260,898,50258,Southbound Main St @ E 51 Ave,BUS ZN,49.223508,-123.101804,3178,29.576774610087277
267,899,50265,Eastbound E 65 Ave @ Main St,BUS ZN,49.211695,-123.101625,3144,38.71045710613758
266,900,50264,Southbound Main St @ E 63 Ave,BUS ZN,49.212975,-123.102245,3151,34.989092705583005
265,901,50263,Southbound Main St @ E 62 Ave,BUS ZN,49.213842,-123.102217,3153,20.843915546094696
10048,902,59392,Westbound Beach Ave @ Thurlow St,BUS ZN,49.277896,-123.135648,1850,39.34571765925281
10049,903,59391,Westbound Beach Ave @ Bute St,BUS ZN,49.279589,-123.137338,1785,38.42490587443583
981,905,50972,Eastbound W Georgia St @ Denman St,BUS ZN,49.292217,-123.133397,1930,47.70862944349168
985,906,50976,Eastbound W Georgia St @ Granville St,BUS ZN,49.28264,-123.118529,2579,35.0512133045463
12393,907,60208,29th Avenue Station @ Bay 4,BUS ZN,49.244435,-123.044461,5696,19.084794879699135
9087,908,58286,Southbound Cambie St @ W 29 Ave,BUS ZN,49.245383,-123.115868,2665,32.27564297016465
9085,909,58281,Westbound E 49 Ave @ Frontenac St,BUS ZN,49.222475,-123.026533,6429,37.219275446168865
2037,910,52020,Westbound E 49 Ave @ Bruce St,BUS ZN,49.225286,-123.070409,4547,37.235604431292494
727,911,50720,Northbound Nanaimo St @ E 11 Ave,BUS ZN,49.260339,-123.056471,5185,8.89353751206448
724,912,50717,Northbound Nanaimo St @ E 17 Ave,BUS ZN,49.255356,-123.056484,5176,30.66069283754114
725,913,50718,Northbound Nanaimo St @ S Grandview Hwy,BUS ZN,49.257382,-123.056473,5180,43.40539987231538
722,914,50715,Northbound Nanaimo St @ E 22 Ave,BUS ZN,49.251051,-123.056489,5170,47.86905817224948
723,915,50716,Northbound Nanaimo St @ E 20 Ave,BUS ZN,49.252691,-123.056482,5174,12.097136064294435
720,916,50713,Westbound E 41 Ave @ Prince Edward St,BUS ZN,49.233094,-123.097712,3411,38.98789637675499
728,917,50721,Northbound Nanaimo St @ E Broadway,BUS ZN,49.262477,-123.056433,5188,38.67921381748294
729,918,50722,Northbound Nanaimo St @ E 6th Ave,BUS ZN,49.265123,-123.056462,5195,18.677673041402976
1164,919,51155,Eastbound Kingsway @ Lincoln St,BUS ZN,49.232088,-123.026055,6443,15.933047534805093
1165,920,51156,Eastbound Kingsway @ Boundary Rd,BUS ZN,49.232257,-123.022286,6523,97.84626438984425
1160,922,51151,Eastbound Kingsway @ Joyce St,BUS ZN,49.233834,-123.03553,6076,42.385182055804115
1161,923,51152,Eastbound Kingsway @ Wessex St,BUS ZN,49.232943,-123.033767,6110,32.066002728842925
1162,924,51153,Eastbound Kingsway @ Tyne St,BUS ZN,49.231987,-123.031656,6219,28.794659477872152
1163,925,51154,Eastbound Kingsway @ Melbourne St,BUS ZN,49.231961,-123.028846,6308,30.935581248416383
2035,926,52018,Westbound E 49 Ave @ Victoria Dr,BUS ZN,49.225238,-123.065364,4739,26.833406768447585
2034,927,52017,Westbound E 49 Ave @ Gladstone St,BUS ZN,49.225187,-123.06295,4893,45.8745193609935
2033,928,52016,Westbound E 49 Ave @ Nanaimo St,BUS ZN,49.225118,-123.05961,5055,36.89282725444953
12804,929,60506,Eastbound Pacific St @ Seymour Mews,BUS ZN,49.274423,-123.128718,2153,22.615149358167862
1716,930,51702,Southbound Rupert St @ Grant St,BUS ZN,49.27109,-123.033737,6148,27.917523468166593
2032,931,52015,Westbound E 49 Ave @ Elliott St,BUS ZN,49.224889,-123.05517,5287,32.754639479007224
1719,932,51705,Southbound Rupert St @ E 5th Ave,BUS ZN,49.265956,-123.03388,6137,33.54812532446922
10895,933,58953,Westbound E 10 Ave @ Kingsway,BUS ZN,49.26203,-123.099601,3257,51.73775094558994
11762,935,61616,29th Avenue Station @ Bay 5,BUS ZN,49.244392,-123.044987,5696,50.212252170724796
109,936,50109,Southbound Macdonald St @ W 6th Ave,BUS ZN,49.266274,-123.168483,782,41.11151452674619
103,937,50103,Westbound Cornwall Ave @ Arbutus St,BUS ZN,49.272608,-123.152989,1212,30.214111260958397
106,938,50106,Westbound Cornwall Ave @ Trafalgar St,BUS ZN,49.272799,-123.164636,906,22.366916733813802
107,939,50107,Southbound Macdonald St @ W 1st Ave,BUS ZN,49.270753,-123.168323,791,32.90824109114837
104,940,50104,Westbound Cornwall Ave @ Yew St,BUS ZN,49.272645,-123.155439,1142,35.88970636729693
105,941,50105,Westbound Cornwall Ave @ Point Grey Rd,BUS ZN,49.272731,-123.160216,1016,38.82911866879264
345,943,50341,Southbound Oak St @ W 33 Ave,BUS ZN,49.241077,-123.12796,2171,40.75923742131439
340,944,50336,Southbound Oak St @ Balfour Ave,BUS ZN,49.251423,-123.12759,2192,34.633471764478266
341,945,50337,Southbound Oak St @ W King Edward Ave,BUS ZN,49.248653,-123.127716,2185,57.50902397120834
342,946,50338,Southbound Oak St @ Nanton Ave,BUS ZN,49.245988,-123.127793,2183,36.91634119791913
8838,947,58290,Southbound Nanaimo St @ Grandview Hwy,BUS ZN,49.257321,-123.056751,5180,50.562637673647075
1759,948,51745,Northbound Boundary Rd @ Venables St,BUS ZN,49.276981,-123.023311,6546,52.78034753967889
1758,949,51744,Northbound Boundary Rd @ William St,BUS ZN,49.274253,-123.023314,6538,26.786131831638258
1757,950,51743,Northbound Boundary Rd @ Kitchener St,BUS ZN,49.272518,-123.02333,6537,81.81983506909003
1756,951,51742,Northbound Boundary Rd @ 1st Ave,BUS ZN,49.269895,-123.023355,6531,49.42988177162821
1755,952,51741,Northbound Boundary Rd @ 2nd Ave,BUS ZN,49.268791,-123.023347,6529,42.69399943807569
1751,953,51737,Northbound Boundary Rd @ Grandview Hwy,BUS ZN,49.258575,-123.023406,6516,51.34898385325413
1750,954,51736,Northbound Boundary Rd @ Dominion St,BUS ZN,49.256757,-123.023409,6516,156.68407392451056
1285,955,51274,Southbound Gore Ave @ Union St,BUS ZN,49.27736,-123.09702,3431,28.67076096269901
1284,956,51273,Southbound Gore Ave @ Keefer St,BUS ZN,49.279105,-123.097251,3415,36.29485844121913
1287,957,51276,Eastbound Terminal Ave @ Thornton St,BUS ZN,49.271619,-123.093947,3574,46.16993795580637
1286,958,51275,Eastbound Terminal Ave @ Western St,BUS ZN,49.272477,-123.098889,3346,20.792350604534118
1283,959,51272,Eastbound E Pender St @ Main St,BUS ZN,49.280323,-123.099245,3289,31.734817656118338
1289,960,51278,Eastbound Prior St @ Dunlevy Ave,BUS ZN,49.276624,-123.095194,3471,27.84038839450668
1288,961,51277,Eastbound Terminal Ave @ Begg St,BUS ZN,49.270461,-123.087037,3788,36.425531284070544
1578,962,51566,Westbound E King Edward Ave @ Windsor St,BUS ZN,49.248642,-123.084376,3915,37.334901363046065
8761,963,60819,Rupert Station @ Platform 2,ZN 1,49.260733,-123.032821,6204,124.51222892914161
8763,964,60823,Commercial-Broadway Station @ Platform 2,ZN 1,49.262912,-123.068491,4619,38.06624235014188
8762,965,60821,Renfrew Station @ Platform 2,ZN 1,49.258877,-123.045348,5716,86.25135043632191
685,966,50678,Southbound Nanaimo St @ E 1st Ave,BUS ZN,49.269138,-123.05673,5203,41.85314763714585
1572,967,51560,Nanaimo Station @ Bay 2,BUS ZN,49.248591,-123.055976,5167,50.39688419347542
687,968,50680,Southbound Nanaimo St @ E 5th Ave,BUS ZN,49.265535,-123.056743,5197,24.095001384811848
1570,969,51558,Westbound E 22 Ave @ Renfrew St,BUS ZN,49.250692,-123.043612,5730,42.15872127461046
1577,970,51565,Westbound E King Edward Ave @ Inverness St,BUS ZN,49.248594,-123.080402,4095,29.49950887313143
1576,971,51564,Westbound E King Edward Ave @ Knight St,BUS ZN,49.248608,-123.076586,4276,35.328638069003226
1575,972,51563,Westbound E King Edward Ave @ Kingsway,BUS ZN,49.24854,-123.073107,4418,19.068814332066985
682,973,50675,Southbound Nanaimo St @ William St,BUS ZN,49.27362,-123.056724,5211,26.948341975940313
12707,974,60412,Westbound W 12th Ave @ Pine St,BUS ZN,49.260917,-123.143876,1529,29.906268739599696
12706,975,60411,Eastbound W 12 Ave @ Pine St,BUS ZN,49.260786,-123.143122,1529,26.72116411551307
12709,976,60414,Eastbound W 12th Ave @ Laurel St,BUS ZN,49.260473,-123.12392,2320,27.043585067383862
1244,977,51234,Southbound Commercial Dr @ E Hastings St,BUS ZN,49.280806,-123.070549,4525,48.72453709151353
245,978,58307,Southbound Main St @ E 18 Ave,BUS ZN,49.254339,-123.100959,3231,29.34205349430088
244,979,50242,Southbound Main St @ E 16 Ave,BUS ZN,49.256251,-123.101386,3208,38.56444924214912
247,980,50245,Southbound Main St @ E 22 Ave,BUS ZN,49.250676,-123.101089,3222,30.09155732146351
246,981,50244,Southbound Main St @ E 20 Ave,BUS ZN,49.252395,-123.101095,3228,36.410959207792615
243,982,50241,Southbound Main St @ E 14 Ave,BUS ZN,49.258082,-123.101305,3212,36.17268086747284
242,983,50240,Southbound Main St @ E 12 Ave,BUS ZN,49.259888,-123.10127,3215,37.44455505940331
248,984,50246,Southbound Main St @ E King Edward Ave,BUS ZN,49.248466,-123.101194,3216,36.31983762020548
2154,988,52134,Eastbound SE Marine Dr @ Prince Edward St,BUS ZN,49.210767,-123.097945,3364,12.014635474388431
9530,989,58037,Eastbound W Broadway @ Alma St,BUS ZN,49.264263,-123.184623,418,62.26126611043257
1143,990,51134,Eastbound Kingsway @ E Broadway,BUS ZN,49.262551,-123.099412,3306,34.23488775572582
1146,991,51137,Eastbound Kingsway @ Carolina St,BUS ZN,49.257418,-123.092371,3594,16.50728026016234
1147,992,51138,Eastbound Kingsway @ Fraser St,BUS ZN,49.256214,-123.089018,3695,64.69623815136357
1144,993,51135,Eastbound Kingsway @ E 12 Ave,BUS ZN,49.260192,-123.097102,3448,55.957205031910156
1145,994,51136,Eastbound Kingsway @ E 13 Ave,BUS ZN,49.258948,-123.095429,3495,35.493825381417345
1149,995,51140,Eastbound Kingsway @ Glen Dr,BUS ZN,49.252628,-123.081356,4005,32.21231532783602
768,996,50761,Northbound Granville St @ W 62 Ave,BUS ZN,49.215299,-123.140165,1644,30.70861838812899
8537,998,50970,Southbound Victoria Dr @ E 22 Ave,BUS ZN,49.249893,-123.065127,4805,44.180997357301734
381,999,50377,Eastbound W 41 Ave @ Carnarvon St,BUS ZN,49.234677,-123.172505,669,38.689042090468476
382,1000,50378,Eastbound W 41 Ave @ Macdonald St,BUS ZN,49.234665,-123.166968,829,29.48081876336123
383,1001,50379,Eastbound W 41 Ave @ Elm St,BUS ZN,49.234632,-123.16364,911,37.29227780721161
384,1002,50380,Eastbound W 41 Ave @ Balsam St,BUS ZN,49.234588,-123.160946,970,28.42276874919531
385,1003,50381,Eastbound W 41 Ave @ Yew St,BUS ZN,49.234552,-123.158131,1036,28.0880866985191
387,1004,50383,Eastbound W 41 Ave @ Maple St,BUS ZN,49.234437,-123.151616,1230,31.646212526873086
388,1005,50384,Eastbound W 41 Ave @ Cypress St,BUS ZN,49.234394,-123.148854,1317,25.9927898274073
389,1006,50385,Eastbound W 41 Ave @ Wiltshire St,BUS ZN,49.234351,-123.145952,1424,26.488017072925867
1077,1007,51068,Westbound E 41 Ave @ Nanaimo St,BUS ZN,49.232926,-123.059252,5068,29.38956450855863
1075,1008,51066,Southbound Clarendon St @ E 40 Ave,BUS ZN,49.233499,-123.055616,5260,41.53939412758654
1071,1009,51062,Westbound Kingsway @ Earles St,BUS ZN,49.237873,-123.049127,5555,33.60763396303371
2046,1010,52029,Westbound E 49 Ave @ Prince Edward St,BUS ZN,49.22566,-123.098055,3394,40.44903686789265
2047,1011,52030,Westbound E 49 Ave @ Main St,BUS ZN,49.225733,-123.102131,3180,38.28594902242241
39,1012,59525,Westbound Water St @ Abbott St,BUS ZN,49.28411,-123.107364,2976,76.66744426448513
2044,1013,52027,Westbound E 49 Ave @ Fraser St,BUS ZN,49.225535,-123.091289,3659,39.27655434474786
2045,1014,52028,Westbound E 49 Ave @ St. George St,BUS ZN,49.225593,-123.094471,3535,29.910277146128223
169,1015,50169,Northbound Main St @ E King Edward Ave,BUS ZN,49.249121,-123.100891,3217,27.107897573772142
165,1016,50165,Northbound Main St @ E 33 Ave,BUS ZN,49.241308,-123.101314,3200,75.46582664938506
166,1017,50166,Northbound Main St @ E 30 Ave,BUS ZN,49.243554,-123.101232,3202,31.537568142029965
167,1018,50167,Northbound Main St @ E 28 Ave,BUS ZN,49.245968,-123.101101,3207,8.94268539019268
160,1019,50160,Oakridge-41st Ave Station @ Bay 5,BUS ZN,49.233681,-123.116855,2641,51.751002963321966
162,1020,50162,Northbound Main St @ E 39 Ave,BUS ZN,49.235734,-123.101505,3184,34.77968989707496
163,1021,50163,Northbound Main St @ E 36 Ave,BUS ZN,49.23802,-123.101502,3186,14.777012719624079
2040,1022,52023,Westbound E 49 Ave @ Inverness St,BUS ZN,49.225407,-123.080565,4090,39.55182346623338
2041,1023,52024,Westbound E 49 Ave @ Elgin St,BUS ZN,49.225453,-123.083275,3962,35.573236833079825
2737,1024,52712,Eastbound W Hastings St @ Abbott St,BUS ZN,49.282214,-123.108834,2883,60.067733798606234
2730,1025,52705,Southbound Boundary Rd @ E Kent Ave,BUS ZN,49.20373,-123.023457,6560,25.647353023407334
2738,1028,52713,Eastbound E Hastings St @ Main St,BUS ZN,49.28122,-123.098307,3404,62.047452412528266
2739,1029,52714,Eastbound E Hastings St @ Commercial Dr,BUS ZN,49.281131,-123.07086,4525,36.88198634112884
10365,1030,59766,Eastbound Great Northern Way @ Foley St,BUS ZN,49.266021,-123.086122,3821,43.71973870522227
10364,1031,59763,Eastbound Great Northern Way @ Brunswick St,BUS ZN,49.266743,-123.095812,3457,30.648701318901022
10361,1032,59758,Eastbound W 2nd Ave @ Columbia St,BUS ZN,49.269029,-123.109733,2862,15.678373938112005
10360,1033,61039,Olympic Village Station @ Bay 2,BUS ZN,49.266425,-123.114936,2680,28.540021268202842
10362,1034,59760,Eastbound E 2nd Ave @ Ontario St,BUS ZN,49.269125,-123.104153,3047,36.0907618510746
11616,1035,58313,Northbound Granville St @ W Pender St,BUS ZN,49.284493,-123.114994,2703,21.31636152879572
11610,1036,59434,Westbound E 49 Ave @ Vivian St,BUS ZN,49.224856,-123.050858,5480,40.89801680330886
809,1037,50802,Southbound Fraser St @ E 65 Ave,BUS ZN,49.211508,-123.091218,3625,35.21515345113014
808,1038,50801,Southbound Fraser St @ E 63 Ave,BUS ZN,49.212749,-123.091181,3626,19.028602640004813
803,1039,50796,Southbound Fraser St @ E 53 Ave,BUS ZN,49.22148,-123.091,3651,32.998499410698045
802,1040,50795,Southbound Fraser St @ E 51 Ave,BUS ZN,49.223292,-123.090958,3657,32.690041365271796
801,1041,50794,Southbound Fraser St @ E 49 Ave,BUS ZN,49.225133,-123.090918,3659,38.82068318772183
800,1042,50793,Southbound Fraser St @ E 47 Ave,BUS ZN,49.227099,-123.090813,3663,31.107167737635958
807,1043,50800,Southbound Fraser St @ E 61 Ave,BUS ZN,49.214571,-123.091155,3632,31.438707179280954
806,1044,50799,Southbound Fraser St @ E 59 Ave,BUS ZN,49.216234,-123.091124,3636,33.20057726485086
805,1045,50798,Southbound Fraser St @ E 57 Ave,BUS ZN,49.217937,-123.091092,3643,36.55011824009847
1777,1046,51763,Southbound Boundary Rd @ Napier St,BUS ZN,49.274644,-123.023771,6541,34.894239347790624
379,1047,50375,Eastbound W 41 Ave @ Blenheim St,BUS ZN,49.234696,-123.178303,528,29.837115805137028
11103,1049,50467,Oakridge-41st Ave Station @ Bay 6,BUS ZN,49.233905,-123.115953,2641,43.939288631166946
11100,1050,61100,Eastbound Midlothian Ave @ Clancy Loranger Way,BUS ZN,49.242588,-123.108805,2900,48.29099732795314
12026,1051,61810,Northbound Smithe St @ Expo Blvd,BUS ZN,49.276112,-123.114934,2712,39.13168542917754
12027,1052,52123,Marpole Loop @ Bay 5,BUS ZN,49.203203,-123.133071,1934,122.29793842862446
11829,1053,60562,Northbound N Boundary Rd @ Trinity St,BUS ZN,49.289497,-123.023179,6562,26.941856305195913
1520,1054,51508,Eastbound W King Edward Ave @ Hudson St,BUS ZN,49.249192,-123.133894,1900,35.979762257982024
10058,1055,50086,Westbound Pacific Blvd @ Drake St,BUS ZN,49.27342,-123.124214,2364,38.983353812663495
1522,1056,51510,Eastbound W King Edward Ave @ Oak St,BUS ZN,49.24909,-123.127001,2187,41.32925445641323
1622,1057,51610,Southbound Kerr St @ E 49 Ave,BUS ZN,49.224314,-123.041185,5862,48.26712773167962
1523,1058,51511,Eastbound W King Edward Ave @ Willow St,BUS ZN,49.248988,-123.121932,2396,30.812624200721213
1992,1059,51975,Eastbound E 49 Ave @ Fraser St,BUS ZN,49.225406,-123.090264,3659,36.52945865172846
10057,1060,50087,Westbound Pacific St @ Richards St,BUS ZN,49.273623,-123.127085,2194,29.95354929486021
1995,1061,51978,Eastbound E 49 Ave @ Sherbrooke St,BUS ZN,49.225278,-123.080946,4020,35.236546543848306
1626,1062,51614,Southbound Kerr St @ E 59 Ave,BUS ZN,49.216248,-123.041587,5832,27.274833908414
10196,1063,59767,VCC-Clark Station @ Unloading Only,BUS ZN,49.265975,-123.079842,4134,37.12829505107917
1997,1064,51980,Eastbound E 49 Ave @ Dumfries St,BUS ZN,49.225193,-123.074083,4340,32.19035439166046
1996,1065,51979,Eastbound E 49 Ave @ Knight St,BUS ZN,49.225208,-123.076725,4224,41.009689899029716
1128,1066,51119,Northbound Adera St @ W 64 Ave,BUS ZN,49.213522,-123.143433,1513,37.315146599411875
1129,1067,51120,Marpole Loop @ Bay 2,BUS ZN,49.20325,-123.132871,2007,113.55857533026723
1120,1068,51111,Southbound Arbutus St @ W 49 Ave,BUS ZN,49.226773,-123.155273,1124,43.36650017898135
1121,1069,51112,Eastbound W 51 Ave @ Arbutus St,BUS ZN,49.224918,-123.154675,1119,39.93967681573896
1122,1070,51113,Southbound West Blvd @ W 53 Ave,BUS ZN,49.222481,-123.1524,1207,35.76394980315858
1124,1071,51115,Southbound West Blvd @ W 60 Ave,BUS ZN,49.216794,-123.149023,1318,37.51755652951839
1126,1072,51117,Southbound Angus Dr @ W 63 Ave,BUS ZN,49.2139,-123.148557,1339,26.497524845213597
1127,1073,51118,Eastbound W 64 Ave @ East Blvd,BUS ZN,49.213182,-123.146293,1414,21.428775684007622
8041,1074,57966,Granville Station @ Platform 2,ZN 1,49.283136,-123.115744,2661,20.26297153080541
8043,1075,57968,Main Street-Science World Station @ Platform 2,ZN 1,49.273099,-123.100399,3271,46.02811412088685
8044,1076,57969,Commercial-Broadway Station @ Platform 4,ZN 1,49.262317,-123.069179,4561,41.233241737011575
8047,1077,57972,Joyce-Collingwood Station @ Platform 2,ZN 1,49.238353,-123.031827,6209,11.379154140970883
555,1078,50550,Southbound Granville St @ N Connaught Dr,BUS ZN,49.244793,-123.139357,1691,52.872929572907694
554,1079,58588,Southbound Granville St @ Nanton Ave,BUS ZN,49.247111,-123.139289,1695,34.862821382695756
10350,1080,59765,Westbound Great Northern Way @ Foley St,BUS ZN,49.266404,-123.087137,3821,41.362284357798025
4881,1081,58321,Southbound Howe St @ Dunsmuir St,BUS ZN,49.284055,-123.11788,2605,42.35716125211442
4882,1082,54830,Southbound Howe St @ W Georgia St,BUS ZN,49.282906,-123.119595,2538,44.89495678822086
146,1083,50146,Northbound Main St @ E 59 Ave,BUS ZN,49.217015,-123.101819,3166,31.18375725788868
147,1084,50147,Northbound Main St @ E 57 Ave,BUS ZN,49.218788,-123.10174,3169,38.691904741045455
144,1085,59844,Northbound Main St @ E 62 Ave,BUS ZN,49.214623,-123.101909,3157,31.056592640030814
4883,1086,54831,Southbound Howe St @ Robson St,BUS ZN,49.281831,-123.121239,2461,37.219820183511544
142,1087,50142,Northbound Main St @ SE Marine Dr,BUS ZN,49.211565,-123.102035,3144,22.97495824366227
140,1088,50140,Eastbound E 41 Ave @ Ontario St,BUS ZN,49.233063,-123.105218,3003,32.203870675033976
4887,1089,54835,Southbound Granville St @ W Cloverleaf,BUS ZN,49.266704,-123.138572,1726,13.139152301205245
10694,1090,50013,Eastbound Pacific St @ Richards St,BUS ZN,49.273529,-123.127316,2194,24.72118871838109
12631,1091,60386,Eastbound W 41 Ave @ East Blvd,BUS ZN,49.234483,-123.154407,1135,43.53986282867869
12632,1092,60385,Westbound W 41 Ave @ East Blvd,BUS ZN,49.234672,-123.15479,1135,19.217544327671515
828,1093,50821,Northbound Fraser St @ E 62 Ave,BUS ZN,49.214241,-123.090903,3630,12.82696132678822
827,1094,50820,Northbound Fraser St @ E 65 Ave,BUS ZN,49.212147,-123.090933,3625,38.8676291591244
826,1095,50819,Westbound SW Marine Dr @ Oak St,BUS ZN,49.20453,-123.131063,2059,51.10779014158196
820,1096,50813,Southbound Oak St @ Park Dr,BUS ZN,49.214689,-123.130177,2079,28.281991233319026
823,1097,50816,Southbound Oak St @ W 70 Ave,BUS ZN,49.208654,-123.130386,2068,23.797784962474235
822,1098,50815,Southbound Oak St @ W 67 Ave,BUS ZN,49.21048,-123.130325,2074,29.76533413965901
1713,1099,51699,Southbound Rupert St @ Adanac St,BUS ZN,49.277105,-123.033686,6159,37.932523898294875
1712,1100,51698,Westbound Adanac St @ Skeena St,BUS ZN,49.277492,-123.028787,6351,34.71619313640243
1711,1101,51697,Southbound Boundary Rd @ E Georgia St,BUS ZN,49.277916,-123.023773,6547,38.78505810814751
1710,1102,51696,Southbound Boundary Rd @ E Pender St,BUS ZN,49.279904,-123.023768,6548,34.751713963784724
1715,1103,51701,Southbound Rupert St @ Charles St,BUS ZN,49.272956,-123.033718,6151,32.81389964607108
1714,1104,51700,Southbound Rupert St @ Parker St,BUS ZN,49.275459,-123.033703,6155,37.716680556452665
922,1105,50914,Westbound E Broadway @ Woodland Dr,BUS ZN,49.262447,-123.074067,4393,34.69417143212663
3019,1106,52988,Southbound N Boundary Rd @ Eton St,BUS ZN,49.287261,-123.02361,6557,49.85928360063641
201,1107,50201,Eastbound W 41 Ave @ Osler St,BUS ZN,49.233911,-123.129836,2063,39.906199545723666
200,1108,50200,Eastbound W 41 Ave @ Selkirk St,BUS ZN,49.23404,-123.132898,1970,28.62206687620211
202,1109,56125,Northbound Granville St @ W 41 Ave,BUS ZN,49.234888,-123.139463,1672,54.28390522121295
205,1110,50204,Northbound Granville St @ W 36 Ave,BUS ZN,49.239279,-123.13931,1678,32.09401926378694
204,1111,50203,Northbound Granville St @ W 38 Ave,BUS ZN,49.237418,-123.139374,1675,34.628061858909284
207,1112,50206,Northbound Granville St @ Minto Cres,BUS ZN,49.243144,-123.139178,1686,38.27864874108532
206,1113,50205,Northbound Granville St @ W 34 Ave,BUS ZN,49.241186,-123.13924,1682,33.32933181430664
209,1114,50208,Northbound Granville St @ Nanton Ave,BUS ZN,49.24769,-123.139023,1695,32.397651926070374
208,1115,50207,Northbound Granville St @ N Connaught Dr,BUS ZN,49.245722,-123.139081,1692,33.510130498694906
12040,1116,61809,Eastbound Cornwall Ave @ Trafalgar St,BUS ZN,49.272658,-123.163937,906,30.738681129391267
12048,1117,61826,Southbound Clarendon St @ E 33 Ave,BUS ZN,49.239443,-123.055538,5265,35.614204870396684
835,1118,50828,Northbound Fraser St @ E 47 Ave,BUS ZN,49.227632,-123.090596,3663,30.24710150169
838,1119,50831,Northbound Fraser St @ E 41 Ave,BUS ZN,49.233627,-123.090406,3668,82.99880007037805
10070,1120,59420,Eastbound Davie St @ Broughton St,BUS ZN,49.283478,-123.136106,1822,26.69078204395575
920,1121,50912,Westbound E Broadway @ Semlin Dr,BUS ZN,49.262384,-123.064374,4829,33.58945391680767
923,1122,50915,Westbound E Broadway @ McLean Dr,BUS ZN,49.262487,-123.07607,4310,40.25307922853834
924,1123,50916,Westbound E Broadway @ Clark Dr,BUS ZN,49.262499,-123.078554,4212,78.76252123731112
925,1124,50917,Westbound E Broadway @ Glen Dr,BUS ZN,49.262497,-123.080761,4041,44.0307852599393
926,1125,50918,Westbound E Broadway @ Windsor St,BUS ZN,49.262532,-123.083724,3942,34.04882245731867
785,1126,50778,Southbound Fraser St @ E 16 Ave,BUS ZN,49.25611,-123.090058,3695,37.98825029385577
787,1127,50780,Southbound Fraser St @ E 21 Ave,BUS ZN,49.25162,-123.090186,3690,34.07023791177456
780,1128,50773,Eastbound E Broadway @ Prince Edward St,BUS ZN,49.262454,-123.095524,3462,37.97026372747764
781,1129,50774,Eastbound E Broadway @ St. George St,BUS ZN,49.262402,-123.092514,3584,35.086185048469886
788,1130,50781,Southbound Fraser St @ E 23 Ave,BUS ZN,49.249808,-123.090246,3688,34.30330014237016
789,1131,50782,Southbound Fraser St @ E King Edward Ave,BUS ZN,49.248306,-123.090273,3685,38.02378929840637
1371,1132,51360,Westbound Venables St @ Vernon Dr,BUS ZN,49.276868,-123.079737,4107,18.84244709786338
1372,1133,51361,Westbound Venables St @ Raymur Ave,BUS ZN,49.276876,-123.083149,3979,41.273658725761265
1374,1134,51363,Westbound Prior St @ Heatley Ave,BUS ZN,49.276651,-123.09021,3698,36.890409038616454
784,1135,50777,Southbound Fraser St @ E 13 Ave,BUS ZN,49.258479,-123.089284,3727,37.34070812308969
12823,1136,60577,Westbound W Georgia St @ Richards St,BUS ZN,49.281177,-123.115895,2650,18.604778128445933
786,1137,50779,Southbound Fraser St @ E 19 Ave,BUS ZN,49.25348,-123.090123,3692,28.989374254324805
782,1138,50775,Southbound Fraser St @ E Broadway,BUS ZN,49.262021,-123.089232,3732,50.58223893022294
783,1139,50776,Southbound Fraser St @ E 11 Ave,BUS ZN,49.26032,-123.089275,3730,34.423217965622584
1106,1140,51097,Southbound Arbutus St @ W 19 Ave,BUS ZN,49.255057,-123.153065,1191,27.44345377560416
1107,1141,51098,Southbound Arbutus St @ W 21 Ave,BUS ZN,49.253174,-123.153131,1186,35.43888250987816
1104,1142,51095,Southbound Arbutus St @ W 14 Ave,BUS ZN,49.258823,-123.153203,1182,35.93453002667612
1105,1143,51096,Southbound Arbutus St @ W 16 Ave,BUS ZN,49.256894,-123.153045,1178,43.284563282994235
1103,1144,51094,Southbound Arbutus St @ W 12 Ave,BUS ZN,49.260673,-123.153185,1188,38.08029729462668
1108,1145,51099,Southbound Arbutus St @ W King Edward Ave,BUS ZN,49.251137,-123.153214,1180,45.93958815135437
686,1146,50679,Southbound Nanaimo St @ E 3rd Ave,BUS ZN,49.267411,-123.056736,5200,21.792806808756595
1836,1147,51822,Southbound Elliott St @ E 47 Ave,BUS ZN,49.227337,-123.054776,5295,27.45204556277786
2137,1150,52117,Northbound Granville St @ W 71 Ave,BUS ZN,49.206713,-123.140464,1630,40.06043069942953
11258,1151,61254,Olympic Village Station @ Bay 3,BUS ZN,49.265937,-123.116053,2649,12.226336253199827
11252,1152,61338,Marine Drive Station @ Bay 2,BUS ZN,49.209383,-123.116116,2607,110.15352596649898
11251,1153,61337,Marine Drive Station @ Bay 1,BUS ZN,49.209087,-123.116823,2607,118.6751592460743
12789,1154,59431,Eastbound W Broadway @ Spruce St,BUS ZN,49.263296,-123.128317,2127,50.081148456325444
12788,1155,60495,Southbound Arbutus St @ 4200 Block,BUS ZN,49.248095,-123.153504,1176,55.4204957466927
12787,1156,60547,Southbound West Blvd @ W 46th Ave,BUS ZN,49.229631,-123.155866,1085,29.655839085833815
9147,1157,51139,Eastbound Kingsway @ St. Catherines St,BUS ZN,49.254367,-123.085052,3855,43.92099283341007
378,1158,50374,Eastbound W 41 Ave @ Collingwood St,BUS ZN,49.234687,-123.181639,444,27.981656974319097
845,1159,50838,Northbound Fraser St @ E 28 Ave,BUS ZN,49.245869,-123.090107,3681,33.53543873171809
372,1160,50368,Southbound Dunbar St @ W 29 Ave,BUS ZN,49.245928,-123.185332,392,27.969616713544596
842,1161,50835,Northbound Fraser St @ E 33 Ave,BUS ZN,49.240627,-123.09022,3675,26.660034002983174
1731,1162,51717,Southbound Rupert St @ E 28 Ave,BUS ZN,49.245072,-123.033981,6115,34.510296926092835
1735,1163,51721,Southbound Joyce St @ Wellington Ave,BUS ZN,49.2398,-123.030473,6287,39.258760193286506
1736,1164,51722,Joyce Station @ Unloading Only,BUS ZN,49.238592,-123.032425,6209,57.27187110458213
1594,1165,51582,Westbound W King Edward Ave @ Pine Cres,BUS ZN,49.249695,-123.14792,1394,34.95599156900795
1596,1166,51584,Westbound W King Edward Ave @ Arbutus St,BUS ZN,49.251741,-123.153726,1180,51.15591047958438
1593,1167,51581,Westbound W King Edward Ave @ Marguerite St,BUS ZN,49.249651,-123.145097,1487,38.05716011189989
1592,1168,51580,Westbound W King Edward Ave @ Granville St,BUS ZN,49.24956,-123.139586,1699,41.204904589435536
1598,1169,51586,Westbound W King Edward Ave @ Valley Dr,BUS ZN,49.249723,-123.159848,1018,42.056499751499416
11615,1170,59128,Westbound Canada Way @ Smith Ave,BUS ZN,49.254781,-123.021521,6514,171.28947024455744
11,1171,50011,Eastbound Davie St @ Howe St,BUS ZN,49.27755,-123.126971,2213,30.16109555601739
485,1172,50481,Northbound Cambie St @ W 12 Ave,BUS ZN,49.260758,-123.114831,2695,42.23708655296187
483,1173,50479,Northbound Cambie St @ W 16 Ave,BUS ZN,49.257158,-123.114908,2690,30.725682081324635
14,1174,50014,Eastbound Pacific Blvd @ Homer St,BUS ZN,49.272929,-123.125546,2266,29.654370620890493
12807,1175,60568,Waterfront Station @ Bay 1,BUS ZN,49.286252,-123.113075,2764,36.653301883759845
11441,1176,50978,Westbound W Hastings St @ Granville St,BUS ZN,49.285242,-123.113584,2725,20.456993202682018
1100,1177,51091,Northbound Renfrew St @ E Georgia St,BUS ZN,49.278605,-123.043931,5741,39.354604727571136
1101,1178,51092,Northbound Renfrew St @ E Pender St,BUS ZN,49.280484,-123.043939,5744,32.306663238901486
902,1179,50895,Eastbound E Broadway @ Renfrew St,BUS ZN,49.261812,-123.043749,5720,40.435624210018084
900,1180,50893,Eastbound E Broadway @ Slocan St,BUS ZN,49.261917,-123.049151,5506,31.46806307822846
901,1181,50894,Eastbound E Broadway @ Kaslo St,BUS ZN,49.261906,-123.046541,5612,35.08824667302583
906,1182,50899,Eastbound E Broadway @ Rupert St,BUS ZN,49.261781,-123.033192,6134,41.58268802370477
907,1183,50900,Eastbound Lougheed Hwy @ Skeena St,BUS ZN,49.263759,-123.027828,6340,57.84372958979268
904,1184,50897,Eastbound E Broadway @ Nootka St,BUS ZN,49.261793,-123.039755,5883,30.63624294123793
905,1185,50898,Eastbound E Broadway @ Lillooet St,BUS ZN,49.261818,-123.037407,5980,36.5436573735982
9551,1186,58133,Northbound Granville St @ W 64 Ave,BUS ZN,49.213461,-123.140233,1640,36.95637032575532
12596,1187,60348,Eastbound W Georgia St @ Homer St,BUS ZN,49.280236,-123.114837,2689,46.32880802492273
1798,1188,51784,Southbound Boundary Rd @ Burke St,BUS ZN,49.236626,-123.023676,6527,45.66339260333745
1696,1189,51682,Northbound Rupert St @ Grandview Hwy,BUS ZN,49.258529,-123.033603,6131,44.17082868937913
1697,1190,51683,Northbound Rupert St @ E Broadway,BUS ZN,49.262245,-123.033587,6134,41.50423594747608
1694,1191,51680,Northbound Rupert St @ E 17 Ave,BUS ZN,49.255039,-123.033652,6126,36.00272943464943
1695,1192,51681,Northbound Rupert St @ Worthington Dr,BUS ZN,49.25681,-123.033644,6129,44.968496669458254
1692,1193,51678,Northbound Rupert St @ E 22 Ave,BUS ZN,49.250951,-123.033666,6122,40.638710317797546
1693,1194,51679,Northbound Rupert St @ Seaforth Dr,BUS ZN,49.253435,-123.033663,6124,32.58820334445347
1690,1195,51676,Northbound Rupert St @ E 27 Ave,BUS ZN,49.246536,-123.033689,6116,32.10390461369618
1691,1196,51677,Northbound Rupert St @ E 25 Ave,BUS ZN,49.248137,-123.033674,6118,30.942819913277557
1698,1197,51684,Northbound Rupert St @ E 7th Ave,BUS ZN,49.264088,-123.033609,6136,31.756157207816365
1699,1198,51685,Northbound Rupert St @ E 5th Ave,BUS ZN,49.265981,-123.033605,6137,35.791337738554176
25,1199,50025,Westbound Davie St @ Granville St,BUS ZN,49.277437,-123.126514,2260,40.386967567542996
26,1200,50026,Westbound Davie St @ Howe St,BUS ZN,49.278073,-123.127493,2213,39.348941005078956
22,1201,50022,Northbound Columbia St @ E Pender St,BUS ZN,49.280772,-123.102196,3145,38.64870924929449
11274,1202,61365,Yaletown-Roundhouse Station @ Platform 2,ZN 1,49.274467,-123.122124,2404,7.112716557536395
11275,1203,61366,Yaletown-Roundhouse Station @ Platform 1,ZN 1,49.274508,-123.122015,2404,9.715689134937763
11276,1204,61367,Olympic Village Station @ Platform 2,ZN 1,49.266616,-123.115218,2680,25.12970670504411
11277,1205,61368,Olympic Village Station @ Platform 1,ZN 1,49.266557,-123.115527,2680,22.529052178906895
11272,1206,61363,Vancouver City Centre Station @ Platform 2,ZN 1,49.282462,-123.118283,2579,13.240522443776301
11273,1207,61364,Vancouver City Centre Station @ Platform 1,ZN 1,49.282352,-123.118143,2579,15.44368476524665
11278,1208,61369,Broadway-City Hall Station @ Platform 2,ZN 1,49.262684,-123.114856,2696,48.76004642715196
11279,1209,61370,Broadway-City Hall Station @ Platform 1,ZN 1,49.262725,-123.114753,2696,54.31510972980191
2058,1210,52041,Westbound W 49 Ave @ Granville St,BUS ZN,49.227032,-123.140335,1664,37.68625653660122
9121,1211,58706,Westbound McGill St @ N Esmond Ave,BUS ZN,49.288414,-123.022039,6558,105.401443435291
10655,1212,60728,Eastbound W Broadway @ Bayswater St,BUS ZN,49.264061,-123.170799,712,29.96155308103607
10651,1213,60726,Eastbound W Broadway @ Blenheim St,BUS ZN,49.264155,-123.17742,562,30.8659344266228
10652,1214,60727,Eastbound W Broadway St @ Balaclava St,BUS ZN,49.264095,-123.173572,650,29.295478489261907
600,1215,50594,Westbound W 4th Ave @ NW Marine Dr,BUS ZN,49.268604,-123.200584,131,68.6308748991401
182,1216,50182,Northbound Main St @ National Ave,BUS ZN,49.275321,-123.099748,3275,46.47052250352382
180,1217,50180,Northbound Main St @ Industrial Ave,BUS ZN,49.270803,-123.100432,3247,18.355032337905843
181,1218,50181,Main Street-Science World Station @ Bay 2,BUS ZN,49.273395,-123.099831,3271,70.65936374867245
186,1219,50186,Westbound W Hastings St @ Carrall St,BUS ZN,49.281733,-123.105366,3056,80.73829469003009
184,1220,50184,Northbound Main St @ E Georgia St,BUS ZN,49.278968,-123.099607,3285,40.542628198634894
185,1221,53391,Westbound E Hastings St @ Main St,BUS ZN,49.281426,-123.099363,3294,22.328142458924894
188,1222,50188,Westbound W Hastings St @ Hamilton St,BUS ZN,49.283085,-123.110279,2866,41.947682427865935
189,1223,50189,Southbound Richards St @ W Hastings St,BUS ZN,49.283796,-123.11242,2795,46.62611317122838
869,1224,50862,Southbound Granville St @ W 63 Ave,BUS ZN,49.213531,-123.140485,1640,44.72054095604223
868,1225,50861,Southbound Granville St @ W 61 Ave,BUS ZN,49.215526,-123.140408,1647,40.853755827937846
861,1226,50854,Southbound Granville St @ W 43 Ave,BUS ZN,49.232098,-123.139799,1669,42.83891751060015
2024,1227,52007,Southbound Tyne St @ E 52 Ave,BUS ZN,49.221997,-123.032422,6186,10.840844824773672
2023,1228,52006,Southbound Tyne St @ E 49 Ave,BUS ZN,49.224305,-123.032353,6193,40.82066216391646
2028,1229,52011,Westbound E 49 Ave @ Kerr St,BUS ZN,49.224818,-123.041573,5862,40.37376133135962
2029,1230,52012,Westbound E 49 Ave @ Killarney St,BUS ZN,49.224808,-123.045365,5670,23.830781682079895
1317,1231,51306,Southbound Knight St @ E 43 Ave,BUS ZN,49.230318,-123.077253,4243,36.43439556861862
1316,1232,51305,Southbound Knight St @ E 41 Ave,BUS ZN,49.232305,-123.077224,4252,47.39863653343837
1315,1233,51304,Southbound Knight St @ E 39 Ave,BUS ZN,49.234472,-123.077104,4258,36.86653279756465
1314,1234,51303,Southbound Knight St @ E 37 Ave,BUS ZN,49.236514,-123.07705,4260,39.140068601029895
1313,1235,51302,Southbound Knight St @ E 35 Ave,BUS ZN,49.238186,-123.076911,4263,41.459748980228476
1312,1236,51301,Southbound Knight St @ E 33 Ave,BUS ZN,49.23988,-123.07656,4265,38.05117448760189
1311,1237,51300,Southbound Knight St @ E 31 Ave,BUS ZN,49.242149,-123.076486,4268,41.042465693929685
1310,1238,51299,Southbound Knight St @ E 29 Ave,BUS ZN,49.244204,-123.076425,4271,41.51525805279733
1319,1239,51308,Southbound Knight St @ E 47 Ave,BUS ZN,49.227344,-123.077362,4230,36.87792441709984
1318,1240,51307,Southbound Knight St @ E 45 Ave,BUS ZN,49.228692,-123.077321,4234,36.85154989114548
11429,1241,50220,Northbound Granville St @ Davie St,BUS ZN,49.277584,-123.125372,2260,76.45906942441728
11422,1242,61453,Westbound W Broadway @ Arbutus St,BUS ZN,49.263936,-123.154352,1122,67.99702619344059
11427,1243,50535,Southbound Granville St @ Davie St,BUS ZN,49.276786,-123.126905,2260,65.84297858211927
11426,1244,58593,Northbound Granville St @ Drake St,BUS ZN,49.276487,-123.127092,2178,66.47932290048772
965,1245,50956,Westbound E Hastings St @ Skeena St,BUS ZN,49.281215,-123.028984,6356,50.3449586125396
966,1246,50957,Westbound E Hastings St @ Cassiar St,BUS ZN,49.281267,-123.032823,6163,56.42345742544459
967,1247,50958,Westbound E Hastings St @ Windermere St,BUS ZN,49.281219,-123.036936,6068,55.46880872346885
960,1248,50952,Eastbound E Hastings St @ Lillooet St,BUS ZN,49.281041,-123.038301,5956,38.1458935199433
961,1249,50953,Eastbound E Hastings St @ Windermere St,BUS ZN,49.281027,-123.035464,6068,53.42280737338833
962,1250,50954,Eastbound E Hastings St @ Cassiar St,BUS ZN,49.281014,-123.029969,6261,62.86686619922804
963,1251,50955,Kootenay Loop @ Bay 5,BUS ZN,49.281385,-123.026363,6457,57.876576833536525
968,1252,50959,Westbound E Hastings St @ Renfrew St,BUS ZN,49.281229,-123.044631,5745,43.15433847947365
969,1253,50960,Westbound E Hastings St @ Kaslo St,BUS ZN,49.281226,-123.047423,5637,54.29882187889564
662,1254,50655,Northbound Victoria Dr @ E 36 Ave,BUS ZN,49.237698,-123.065288,4784,22.444421395104055
1241,1255,51232,Northbound Commercial Dr @ E Georgia St,BUS ZN,49.278704,-123.070346,4522,27.195149798432702
640,1256,50634,Eastbound Davie St @ Cardero St,BUS ZN,49.285009,-123.13847,1718,26.058898279894915
643,1257,50637,Eastbound Davie St @ Bute St,BUS ZN,49.28144,-123.132973,1946,46.1769898220822
1534,1258,51522,Eastbound E King Edward Ave @ St. Catherines St,BUS ZN,49.248521,-123.085285,3849,32.70925986203018
1532,1259,51520,Eastbound E King Edward Ave @ St. George St,BUS ZN,49.248609,-123.093688,3543,26.975172865768105
10466,1260,59924,Southbound Quebec St @ Keefer St,BUS ZN,49.279008,-123.102218,3154,28.926041289729742
10467,1261,59918,Eastbound Pacific Blvd @ Marinaside Cres,BUS ZN,49.274212,-123.114446,2694,40.54295463336605
10465,1262,59916,Eastbound Pacific Blvd @ Boathouse Mews,BUS ZN,49.27421,-123.117633,2582,37.10322395551631
648,1263,50642,Eastbound E 41 Ave @ Sophia St,BUS ZN,49.232934,-123.098854,3340,22.013861346062402
10468,1264,50016,Yaletown-Roundhouse Station @ Bay 4,BUS ZN,49.274036,-123.120842,2443,37.80068804385029
1969,1265,51952,Eastbound W 49 Ave @ Balsam St,BUS ZN,49.227171,-123.160812,972,32.751740266097606
1618,1266,51606,Southbound Rupert St @ E 43 Ave,BUS ZN,49.230767,-123.043216,5768,38.65289874295583
1619,1267,51607,Southbound Rupert St @ E 45 Ave,BUS ZN,49.228961,-123.043214,5766,37.2864794859243
641,1268,50635,Eastbound Davie St @ Nicola St,BUS ZN,49.284219,-123.13726,1771,29.781320999301553
8913,1269,58402,Southbound Commercial Dr @ N Grandview Hwy,BUS ZN,49.263232,-123.069903,4562,36.45696468474116
8916,1270,58491,Northbound Commercial Dr @ N Grandview Hwy,BUS ZN,49.26342,-123.069582,4563,34.02706934328141
1963,1272,51946,Eastbound SW Marine Dr @ Blenheim St,BUS ZN,49.23008,-123.179685,491,46.64410062577413
1678,1273,51665,Northbound Kerr St @ E 51 Ave,BUS ZN,49.223331,-123.041021,5859,19.092821395929175
1679,1274,51666,Northbound Kerr St @ E 49 Ave,BUS ZN,49.22509,-123.040907,5862,40.35120518893921
1674,1275,51662,Westbound Rosemont Dr @ Kerr St,BUS ZN,49.215575,-123.041111,5826,28.677126506337363
1675,1276,51663,Northbound Kerr St @ E 58 Ave,BUS ZN,49.217555,-123.041311,5838,40.959386482769474
1676,1277,58284,Northbound Kerr St @ E 54 Ave,BUS ZN,49.219585,-123.041215,5850,48.112715053974945
1670,1278,51658,Northbound Champlain Cres @ Langford Ave,BUS ZN,49.214103,-123.029741,6299,159.12193707463877
1671,1279,51659,Westbound Maquinna Dr @ Stikine Place,BUS ZN,49.215603,-123.031944,6215,42.250074052863276
1672,1280,51660,Westbound Rosemont Dr @ Butler St,BUS ZN,49.216141,-123.035466,6090,56.61282645028371
1673,1281,51661,Westbound Rosemont Dr @ 3200 Block,BUS ZN,49.215611,-123.037361,6002,40.06503548913033
642,1282,50636,Eastbound Davie St @ Jervis St,BUS ZN,49.282579,-123.13477,1880,26.356601264344903
644,1283,50638,Eastbound Davie St @ Thurlow St,BUS ZN,49.280147,-123.13096,2037,30.339892789384
646,1284,50640,Dunbar Loop @ Bay 2,BUS ZN,49.234593,-123.18575,378,36.13914002043966
308,1285,50305,Northbound Dunbar St @ W 28 Ave,BUS ZN,49.247382,-123.185094,393,30.58496821565661
300,1286,50297,Westbound W 41 Ave @ Collingwood St,BUS ZN,49.234836,-123.182546,444,39.93663259282332
301,1287,50298,Dunbar Loop @ Bay 6,BUS ZN,49.235129,-123.185234,378,41.47102518289653
302,1288,50299,Northbound Dunbar St @ W 39 Ave,BUS ZN,49.236747,-123.185216,381,17.977776623497977
303,1289,50300,Northbound Dunbar St @ W 38 Ave,BUS ZN,49.238112,-123.185183,383,42.46019963981179
304,1290,50301,Northbound Dunbar St @ W 36 Ave,BUS ZN,49.239851,-123.185157,385,37.91130065479809
305,1291,50302,Northbound Dunbar St @ W 34 Ave,BUS ZN,49.241702,-123.185172,387,32.341591115835286
306,1292,50303,Northbound Dunbar St @ W 31 Ave,BUS ZN,49.244597,-123.185135,390,37.175236779035714
307,1293,50304,Northbound Dunbar St @ W 30 Ave,BUS ZN,49.245532,-123.185125,391,35.753818226515726
11211,1294,50417,Southbound Cambie St @ W 20 Ave,BUS ZN,49.252766,-123.115379,2683,26.795506932441185
11216,1295,61252,Northbound Cambie St @ W 29 Ave,BUS ZN,49.245537,-123.11525,2665,44.77977205260882
649,1296,50643,Eastbound E 41 Ave @ St. George St,BUS ZN,49.23287,-123.094138,3510,30.916454024112213
10921,1297,59664,Joyce Station @ Bay 7,BUS ZN,49.238723,-123.031266,6209,66.77098290912463
10926,1298,59803,VCC-Clark Station @ Bay 1,BUS ZN,49.265476,-123.079447,4133,32.14036727185678
9104,1299,58652,Westbound E Hastings St @ Lakewood Dr,BUS ZN,49.28127,-123.062205,4953,39.297370970955285
9103,1301,58647,Westbound SE Marine Dr @ Poplar St,BUS ZN,49.211133,-123.092844,3566,37.17197965550154
3429,1302,50187,Westbound W Hastings St @ Abbott St,BUS ZN,49.282221,-123.108043,2941,67.87482950094102
3428,1303,50185,Westbound E Hastings St @ Main St,BUS ZN,49.28144,-123.1003,3294,49.87518989927628
2002,1304,51985,Eastbound E 49 Ave @ Nanaimo St,BUS ZN,49.224949,-123.058733,5055,29.53736699662765
2000,1305,51983,Eastbound E 49 Ave @ Victoria Dr,BUS ZN,49.225106,-123.065263,4739,34.13925212148464
2001,1306,51984,Eastbound E 49 Ave @ Gladstone St,BUS ZN,49.225035,-123.061875,4893,34.0024423563891
2006,1307,51989,Eastbound E 49 Ave @ Killarney St,BUS ZN,49.224673,-123.045214,5670,33.79990104882952
2008,1308,51991,Northbound Tyne St @ E 50 Ave,BUS ZN,49.223484,-123.032195,6190,22.95833224835534
2009,1309,51992,Eastbound E 49 Ave @ Frontenac St,BUS ZN,49.222096,-123.025794,6429,31.02424822736217
1908,1310,51894,Westbound W 41 Ave @ Olympic St,BUS ZN,49.234831,-123.190048,291,30.89734773344002
11182,1311,51674,Northbound Rupert St @ Wellington Ave,BUS ZN,49.242748,-123.035635,6072,40.71149838133828
11183,1312,51672,Westbound Wellington Ave @ Joyce St,BUS ZN,49.240302,-123.030526,6287,41.265343253623385
11180,1313,51720,Eastbound Wellington Ave @ McHardy St,BUS ZN,49.241059,-123.032729,6169,25.915962386181302
11181,1314,51673,Westbound Wellington Ave @ McHardy St,BUS ZN,49.241397,-123.033186,6169,24.23027918477034
11184,1315,51719,Eastbound Wellington Ave @ Rupert St,BUS ZN,49.242237,-123.035603,6072,38.71800101447298
1087,1316,51078,Northbound Renfrew St @ E 21 Ave,BUS ZN,49.251833,-123.044204,5704,37.667948550303215
1086,1317,51077,Northbound Boyd Diversion @ E 22 Ave,BUS ZN,49.250252,-123.043622,5760,12.416168034971914
1085,1318,51076,Northbound Boyd Diversion @ Nootka St,BUS ZN,49.249584,-123.042078,5793,15.14930902846822
1084,1319,51075,Northbound Nootka St @ E 26 Ave,BUS ZN,49.247362,-123.041531,5805,33.587975161883556
1083,1320,51074,Northbound Earles St @ Kings Ave,BUS ZN,49.243327,-123.043266,5761,36.43841617271732
1082,1321,51073,Northbound Earles St @ Euclid Ave,BUS ZN,49.241376,-123.045131,5683,28.115917466046017
1081,1322,51072,Northbound Earles St @ Horley St,BUS ZN,49.23999,-123.046457,5628,37.987556959877374
1080,1323,51071,Eastbound Kingsway @ Wales St,BUS ZN,49.238656,-123.051416,5462,25.810730854425948
1089,1324,51080,Northbound Renfrew St @ E 16 Ave,BUS ZN,49.255753,-123.044185,5711,39.32151856685009
1088,1325,51079,Northbound Renfrew St @ E 17 Ave,BUS ZN,49.254646,-123.044228,5710,24.766036228228618
449,1326,50445,Westbound Eton St @ N Renfrew St,BUS ZN,49.287774,-123.044683,5752,46.52944181461708
1339,1327,51328,Northbound Knight St @ E 59 Ave,BUS ZN,49.216763,-123.076922,4247,43.14537109341347
1338,1328,51327,Northbound Knight St @ E 61 Ave,BUS ZN,49.214995,-123.076944,4244,42.423470313963286
1337,1329,51326,Northbound Knight St @ E 63 Ave,BUS ZN,49.213213,-123.076965,4241,38.39987416861606
31,1332,50031,Burrard Station @ Bay 7,BUS ZN,49.284688,-123.120503,2449,52.64035904283647
30,1333,50030,Northbound Burrard St @ Robson St,BUS ZN,49.283593,-123.12214,2413,22.840119317661753
36,1334,50036,Eastbound W Cordova St @ Homer St,BUS ZN,49.283765,-123.109649,2868,38.180940278051835
844,1335,58955,Northbound Fraser St @ E 31 Ave,BUS ZN,49.242872,-123.090196,3677,35.705654253904015
847,1336,50840,Northbound Fraser St @ E King Edward Ave,BUS ZN,49.248973,-123.089998,3687,25.984372119638273
848,1337,50841,Northbound Fraser St @ E 22 Ave,BUS ZN,49.251282,-123.089924,3689,32.54934180025855
11403,1338,54826,Northbound Granville St @ W 10 Ave,BUS ZN,49.2631,-123.138458,1719,53.294523760505705
11401,1339,59923,Westbound Keefer Place @ Taylor St,BUS ZN,49.279581,-123.106439,2987,26.48457408500452
948,1340,50940,Eastbound E Hastings St @ Glen Dr,BUS ZN,49.280904,-123.08086,4057,31.058784935789532
949,1341,50941,Eastbound E Hastings St @ Clark Dr,BUS ZN,49.281195,-123.076457,4254,46.9779182559646
946,1342,50938,Eastbound E Hastings St @ Hawks Ave,BUS ZN,49.281005,-123.086654,3805,36.852315819034885
947,1343,50939,Eastbound E Hastings St @ Campbell Ave,BUS ZN,49.280957,-123.084231,3894,40.53527977815071
944,1344,50936,Eastbound E Hastings St @ Jackson Ave,BUS ZN,49.281112,-123.092955,3568,35.3833615434909
945,1345,50937,Eastbound E Hastings St @ Princess Ave,BUS ZN,49.281081,-123.090971,3616,37.458539331552664
942,1346,50934,Eastbound E Hastings St @ Main St,BUS ZN,49.281225,-123.099034,3294,45.0208562505757
943,1347,50935,Eastbound E Hastings St @ Gore Ave,BUS ZN,49.281207,-123.096763,3404,51.24769436717788
940,1348,50932,Eastbound W Hastings St @ Abbott St,BUS ZN,49.281983,-123.10758,2941,29.030348591025717
10114,1349,59513,Eastbound W Georgia St @ Hamilton St,BUS ZN,49.280019,-123.114489,2721,21.86447273007314
1658,1350,51646,Southbound Tyne St @ E 47 Ave,BUS ZN,49.226166,-123.032301,6196,29.19350087823136
1659,1351,51647,Eastbound E 49 Ave @ Tyne St,BUS ZN,49.22453,-123.03149,6193,52.85375294878276
1652,1352,51640,Southbound Joyce St @ Euclid Ave,BUS ZN,49.236266,-123.033907,6150,29.23892931311895
1653,1353,51641,Southbound Joyce St @ Cherry St,BUS ZN,49.235265,-123.034898,6094,28.521322664535226
1650,1354,51638,Northbound Joyce St @ Euclid Ave,BUS ZN,49.236629,-123.033326,6150,29.167079298460248
1656,1355,51644,Eastbound E 45 Ave @ Doman St,BUS ZN,49.229218,-123.036047,6051,26.0323996805659
1657,1356,51645,Southbound Tyne St @ E 46 Ave,BUS ZN,49.228174,-123.032177,6199,29.365642823805906
1654,1357,51642,Southbound Joyce St @ E 41 Ave,BUS ZN,49.232718,-123.037497,5993,35.46350502156593
411,1358,50407,Northbound Homer St @ W Pender St,BUS ZN,49.282981,-123.111441,2794,41.591800028381016
586,1359,50580,Westbound W 4th Ave @ Maple St,BUS ZN,49.268177,-123.150761,1287,31.433300908077953
584,1360,50578,Westbound W 4th Ave @ Fir St,BUS ZN,49.268039,-123.141569,1623,53.94930143576702
585,1361,50579,Westbound W 4th Ave @ Burrard St,BUS ZN,49.268106,-123.146085,1456,34.33069413901584
582,1362,58023,Westbound W 10 Ave @ Sasamat St,BUS ZN,49.263905,-123.209694,58,45.16600777123301
583,1363,50577,Westbound W 10 Ave @ Tolmie St,BUS ZN,49.263966,-123.212506,35,29.672490119827454
580,1364,50575,Westbound W 10 Ave @ Discovery St,BUS ZN,49.263828,-123.203438,116,33.214995691546136
581,1365,50576,Westbound W 10 Ave @ Trimble St,BUS ZN,49.263863,-123.206461,83,31.678969612521993
589,1366,50583,Westbound W 4th Ave @ Balsam St,BUS ZN,49.26833,-123.160246,1007,29.85318472703393
1737,1367,51723,Eastbound Vanness Ave @ Melbourne St,BUS ZN,49.236321,-123.027853,6366,30.193571433140523
2120,1368,52101,Eastbound E Broadway @ Main St,BUS ZN,49.262801,-123.10042,3262,16.440487399967868
322,1369,50319,Eastbound W Broadway @ Macdonald St,BUS ZN,49.263995,-123.167357,794,58.69660344781353
323,1370,50320,Eastbound W Broadway @ Trafalgar St,BUS ZN,49.263906,-123.164293,890,28.711145277758526
320,1371,60725,Eastbound W Broadway @ Collingwood St,BUS ZN,49.264225,-123.181429,476,30.456284117106904
326,1372,50323,Eastbound W Broadway @ Arbutus St,BUS ZN,49.263766,-123.154253,1122,75.41138552546434
325,1373,50322,Eastbound W Broadway @ Vine St,BUS ZN,49.263809,-123.157195,1063,34.570410644542356
328,1374,50325,Eastbound W Broadway @ Burrard St,BUS ZN,49.263611,-123.145163,1450,43.412018145357216
329,1375,50871,Eastbound W Broadway @ Fir St,BUS ZN,49.263525,-123.140516,1618,37.3641970785914
1595,1376,51583,Westbound W King Edward Ave @ Maple Cres,BUS ZN,49.251211,-123.151677,1236,17.507156725128965
12769,1377,60528,Eastbound Beach Ave @ Cardero St,BUS ZN,49.283216,-123.141983,1575,16.486203614339043
12762,1378,60533,Northbound Blanca St @ W 5th Ave,BUS ZN,49.268423,-123.214932,19,23.1947060598749
12767,1379,60527,Eastbound Beach Ave @ Bidwell St,BUS ZN,49.284744,-123.142826,1548,24.433907573019248
1590,1380,51578,Westbound W King Edward Ave @ Selkirk St,BUS ZN,49.249452,-123.132497,2000,41.125264421859704
9522,1381,50557,Westbound W Broadway @ Pine St,BUS ZN,49.263769,-123.143781,1535,31.635437512449172
364,1382,50360,Southbound Dunbar Diversion @ W 14 Ave,BUS ZN,49.259981,-123.184374,411,37.496170010039954
4876,1383,54824,Marpole Loop @ Bay 4,BUS ZN,49.20366,-123.135845,1784,79.87692464267867
4879,1384,50218,Northbound Granville St @ W 5th Ave,BUS ZN,49.267404,-123.138259,1727,29.099665135581052
363,1385,50359,Southbound Alma St @ W 12 Ave,BUS ZN,49.261267,-123.186069,352,13.755428327014833
2068,1386,52051,Westbound SW Marine Dr @ Blenheim St,BUS ZN,49.230206,-123.179318,524,44.26482016384944
10617,1387,59843,Northbound Main St @ 54 Ave,BUS ZN,49.22134,-123.101649,3175,33.55880184297432
2061,1388,59102,Westbound W 49 Ave @ Maple St,BUS ZN,49.227195,-123.152702,1218,30.150507973183533
2064,1389,52047,Westbound W 49 Ave @ Larch St,BUS ZN,49.227329,-123.163563,919,14.940726106418582
2065,1390,52048,Westbound W 49 Ave @ Macdonald St,BUS ZN,49.227377,-123.167912,820,34.735874372410294
12556,1391,60314,Nanaimo Station @ Bay 1,BUS ZN,49.248336,-123.056509,5167,13.791236038558985
12721,1392,60494,Eastbound W Broadway @ Granville St,BUS ZN,49.263505,-123.139857,1618,84.4312623899128
1358,1393,51347,Northbound Knight St @ E 17 Ave,BUS ZN,49.255554,-123.075773,4290,29.356446915134587
469,1394,50465,Westbound W Broadway @ Alder St,BUS ZN,49.263576,-123.131742,2028,31.027868760156732
468,1395,50464,Westbound W Broadway @ Spruce St,BUS ZN,49.26354,-123.129369,2127,30.954830646208514
1353,1396,51342,Northbound Knight St @ E 28 Ave,BUS ZN,49.245776,-123.076103,4272,43.02336094565171
1352,1397,51341,Northbound Knight St @ E 30 Ave,BUS ZN,49.244049,-123.076163,4270,43.58214142117599
1351,1398,51340,Northbound Knight St @ E 32 Ave,BUS ZN,49.24199,-123.076223,4267,36.7569655399389
1350,1399,51339,Northbound Knight St @ E 33 Ave,BUS ZN,49.240543,-123.076257,4265,38.9472893504911
1357,1400,51346,Northbound Knight St @ E 19 Ave,BUS ZN,49.253818,-123.075837,4286,37.168319464332335
1356,1401,51345,Northbound Knight St @ E 20 Ave,BUS ZN,49.252354,-123.075894,4285,27.405379099478985
1355,1402,51344,Northbound Knight St @ Kingsway,BUS ZN,49.249685,-123.075903,4279,25.519759883141326
1354,1403,51343,Northbound Knight St @ E King Edward Ave,BUS ZN,49.248848,-123.075932,4278,19.780642997176844
9067,1404,58510,Southbound Main St @ E 5th Ave,BUS ZN,49.266106,-123.100973,3237,35.54601989272985
9069,1405,58202,Waterfront Station @ Bay 2,BUS ZN,49.285898,-123.112474,2764,29.249542826292686
52,1406,50052,Westbound Davie St @ Broughton St,BUS ZN,49.283898,-123.136507,1822,28.352777934733
289,1407,50286,Westbound W 41 Ave @ Angus Dr,BUS ZN,49.234547,-123.148146,1381,36.513655463348
288,1408,50285,Westbound W 41 Ave @ Marguerite St,BUS ZN,49.234499,-123.145101,1483,30.50724041168858
281,1409,50278,Eastbound W 10 Ave @ Discovery St,BUS ZN,49.263657,-123.202595,116,30.90047660945192
280,1410,50277,Eastbound W 10 Ave @ Trimble St,BUS ZN,49.263689,-123.205581,83,35.05395611546001
283,1411,50280,Eastbound W 10 Ave @ Camosun St,BUS ZN,49.263564,-123.196532,176,29.618559755415752
282,1412,50279,Eastbound W 10 Ave @ Courtenay St,BUS ZN,49.263605,-123.199436,144,39.45511314786718
285,1413,50282,Eastbound W 10 Ave @ Wallace St,BUS ZN,49.263472,-123.190678,280,14.862975919485928
284,1414,50281,Eastbound W 10 Ave @ Crown St,BUS ZN,49.263526,-123.193422,209,34.46085639908628
287,1415,50284,Westbound W 41 Ave @ Granville St,BUS ZN,49.234426,-123.140514,1590,65.92239451761546
286,1416,50283,Eastbound W 10 Ave @ Highbury St,BUS ZN,49.263434,-123.187456,330,26.55250697002947
709,1417,50702,Westbound E 41 Ave @ Victoria Dr,BUS ZN,49.232771,-123.06615,4767,45.74067760383277
1986,1418,51969,Eastbound W 49 Ave @ Manitoba St,BUS ZN,49.22573,-123.107863,2908,40.00596041412304
1987,1419,51970,Eastbound E 49 Ave @ Quebec St,BUS ZN,49.225636,-123.103335,3081,33.34039065018548
1632,1420,51620,Southbound Champlain Cres @ Marquette Cres,BUS ZN,49.212376,-123.029816,6299,34.30773691140113
1635,1422,51623,Northbound Matheson Cres @ Raintree Court,BUS ZN,49.21425,-123.025462,6469,61.457422213508835
1636,1423,51624,Northbound Matheson Cres @ Rumble Ave,BUS ZN,49.215154,-123.025453,6469,40.45586420859839
1637,1424,51625,Northbound Matheson Cres @ Borham Cres,BUS ZN,49.21648,-123.025012,6480,109.6428963576888
1638,1425,51626,Eastbound Arbor Ave @ Matheson Cres,BUS ZN,49.217418,-123.024627,6480,32.49618589926868
1639,1426,51627,Northbound Boundary Rd @ Arbor Ave,BUS ZN,49.217909,-123.023539,6534,49.23280124645579
1988,1427,51971,Eastbound E 49 Ave @ Main St,BUS ZN,49.225593,-123.101045,3180,42.12530333920776
1989,1428,51972,Eastbound E 49 Ave @ Prince Edward St,BUS ZN,49.225514,-123.097041,3394,34.96839869033178
706,1429,50699,Southbound Victoria Dr @ E 33 Ave,BUS ZN,49.239661,-123.065469,4789,41.80884626053582
568,1430,50563,Westbound W Broadway @ Trafalgar St,BUS ZN,49.264113,-123.165212,890,41.9776544268078
569,1431,50564,Westbound W Broadway @ Macdonald St,BUS ZN,49.264174,-123.168896,794,54.8539420034208
707,1432,50700,Southbound Victoria Dr @ E 36 Ave,BUS ZN,49.237254,-123.065531,4783,24.41452887410392
560,1433,50555,Southbound Granville St @ S Connaught Dr,BUS ZN,49.235947,-123.139659,1674,35.50826904396874
561,1434,50556,Southbound Granville St @ W 40 Ave,BUS ZN,49.235048,-123.139751,1672,39.396478233626866
563,1435,50558,Westbound W Broadway @ Burrard St,BUS ZN,49.263829,-123.146302,1450,42.76840702864388
566,1436,50561,Westbound W Broadway @ Yew St,BUS ZN,49.263962,-123.155724,1122,33.98201504345535
567,1437,50562,Westbound W Broadway @ Balsam St,BUS ZN,49.264051,-123.160487,996,36.31265074345897
1188,1438,51179,Westbound E 41 Ave @ School Ave,BUS ZN,49.233084,-123.03794,5993,40.00410817615237
1189,1439,51180,Westbound E 41 Ave @ Kerr St,BUS ZN,49.233031,-123.040741,5881,39.24201829576747
1186,1440,51177,Westbound Kingsway @ Joyce St,BUS ZN,49.234462,-123.036193,6076,42.42996184321157
1185,1441,51176,Westbound Kingsway @ Wessex St,BUS ZN,49.233186,-123.033761,6110,18.97687819111333
1180,1442,51171,Westbound Kingsway @ Boundary Rd,BUS ZN,49.232527,-123.022197,6523,107.10223289207849
1181,1443,51172,Westbound Kingsway @ Boundary Rd,BUS ZN,49.232402,-123.024096,6523,35.45511590354157
48,1444,50048,Westbound Davie St @ Burrard St,BUS ZN,49.279449,-123.129617,2113,52.97466939843277
49,1445,50049,Westbound Davie St @ Thurlow St,BUS ZN,49.280756,-123.131638,2037,53.469575333490496
46,1446,50046,Southbound Burrard St @ Barclay St,BUS ZN,49.282068,-123.12488,2292,20.17579511538325
47,1447,50047,Southbound Burrard St @ Nelson St,BUS ZN,49.280981,-123.126516,2265,44.79441457606046
44,1448,50044,Southbound Burrard St @ W Georgia St,BUS ZN,49.284178,-123.121677,2432,20.27768127453399
45,1449,50045,Southbound Burrard St @ Robson St,BUS ZN,49.283087,-123.123336,2379,45.36914686842556
40,1450,50040,Waterfront Station @ Bay 3,BUS ZN,49.285579,-123.112029,2796,31.918798703848235
346,1451,50342,Southbound Oak St @ W 37 Ave,BUS ZN,49.237306,-123.128102,2168,40.334668173067286
12704,1452,60409,Eastbound W 12th Ave @ Cypress St,BUS ZN,49.260863,-123.147849,1357,27.5125978424649
10967,1453,61095,Eastbound Marpole Ave @ McRae Ave,BUS ZN,49.257415,-123.137767,1733,37.986154806682265
10966,1454,61126,Westbound W 16 Ave @ Granville St,BUS ZN,49.25714,-123.139365,1709,43.17563545423783
10969,1457,61088,Eastbound W 16 Ave @ Dunbar St,BUS ZN,49.257785,-123.184606,406,38.81454475559413
11088,1458,58501,Broadway-City Hall Station @ Bay 4,BUS ZN,49.263349,-123.116526,2593,70.55030501525646
12494,1461,60197,Southbound Burrard St @ Harwood St,BUS ZN,49.277837,-123.131265,2033,19.093737173530965
407,1462,50403,Westbound W 5th Ave @ Granville St,BUS ZN,49.266843,-123.137905,1726,38.39594980553498
1370,1463,51359,Westbound Venables St @ Clark Dr,BUS ZN,49.276842,-123.077921,4178,48.72739148291642
1373,1464,51362,Westbound Prior St @ Hawks Ave,BUS ZN,49.27661,-123.087839,3791,37.07333287810412
404,1465,50400,Eastbound W 4th Ave @ Burrard St,BUS ZN,49.26793,-123.145082,1456,41.0376679255981
1375,1466,51364,Westbound Prior St @ Jackson Ave,BUS ZN,49.276725,-123.094157,3559,40.395582627698936
1377,1467,51366,Northbound Gore Ave @ E Georgia St,BUS ZN,49.278838,-123.097008,3420,35.617643613845274
400,1468,50396,Eastbound W 4th Ave @ Balsam St,BUS ZN,49.268147,-123.159497,1007,28.178371840521972
1379,1469,51368,Southbound Macdonald St @ W 4th Ave,BUS ZN,49.268064,-123.168411,786,34.198217350443606
1378,1470,51367,Westbound E Pender St @ Gore Ave,BUS ZN,49.280427,-123.097706,3410,29.64085447234501
409,1471,50405,Burrard Station @ Bay 2,BUS ZN,49.286035,-123.12037,2442,75.77235798736163
1502,1472,51490,Eastbound W 16 Ave @ Camosun St,BUS ZN,49.257986,-123.197494,162,30.080471374403064
1503,1473,51491,Eastbound W 16 Ave @ Crown St,BUS ZN,49.257917,-123.193063,235,37.08055612910813
1500,1474,51488,Eastbound W 16 Ave @ Trimble St,BUS ZN,49.258107,-123.205776,77,36.99322871708144
12134,1475,61503,Eastbound E 41 Ave @ Fraser St,BUS ZN,49.232781,-123.090946,3668,31.547795672728906
1507,1476,51495,Eastbound W King Edward Ave @ Blenheim St,BUS ZN,49.249892,-123.178128,546,35.34430469597801
10400,1477,59831,Southbound Howe St @ W Pender St,BUS ZN,49.285048,-123.116344,2663,46.737847809509475
10404,1478,59838,Southbound Main St @ E 39 Ave,BUS ZN,49.235131,-123.101698,3184,33.75883581204018
1977,1479,51960,Eastbound W 49 Ave @ Granville St,BUS ZN,49.226886,-123.139329,1664,37.150196452274734
1976,1480,51959,Eastbound W 49 Ave @ Churchill St,BUS ZN,49.22692,-123.141217,1576,33.526427176754865
1973,1481,59103,Eastbound W 49 Ave @ Maple St,BUS ZN,49.227063,-123.151905,1218,29.607454177686165
1972,1482,51955,Eastbound W 49 Ave @ East Blvd,BUS ZN,49.227085,-123.153974,1158,36.87774746122992
1606,1483,51594,Westbound W 16 Ave @ Camosun St,BUS ZN,49.258254,-123.197604,162,38.85835739545325
1968,1484,51951,Eastbound W 49 Ave @ Marine Cres,BUS ZN,49.227223,-123.164688,895,19.77358019958085
1615,1485,51603,29th Avenue Station @ Bay 2,BUS ZN,49.244186,-123.045328,5663,60.43646541049272
11119,1486,61073,Southbound Cambie St @ Robson St,BUS ZN,49.277999,-123.115404,2697,40.653175722250815
542,1487,50537,Westbound W Cloverleaf @ Granville St,BUS ZN,49.266837,-123.139046,1726,45.846564450585845
547,1488,50542,Southbound Granville St @ W 11 Ave,BUS ZN,49.261424,-123.138768,1716,33.25747356116076
544,1489,50539,Southbound Granville St @ W 7th Ave,BUS ZN,49.26511,-123.138634,1724,28.175036732938832
545,1490,50540,Westbound W Broadway @ Granville St,BUS ZN,49.263732,-123.140158,1618,62.40534498783901
548,1491,50543,Southbound Granville St @ W 13 Ave,BUS ZN,49.259524,-123.138834,1712,35.364413574490804
549,1492,50544,Southbound Granville St @ W 15 Ave,BUS ZN,49.257667,-123.138899,1710,36.91525264256242
368,1493,50364,Southbound Dunbar St @ W 21 Ave,BUS ZN,49.253446,-123.18526,401,36.66584571782091
12720,1494,60492,Eastbound W Cordova St @ Carrall St,BUS ZN,49.282442,-123.104634,3057,25.219074421129356
10980,1495,50321,Eastbound W Broadway @ Larch St,BUS ZN,49.263904,-123.16196,946,31.977786570866257
11587,1496,61554,Eastbound Harrison Dr @ Victoria Dr,BUS ZN,49.210486,-123.065448,4699,47.88516551742382
680,1497,50673,Southbound Nanaimo St @ Adanac St,BUS ZN,49.277149,-123.056711,5221,36.368746919998785
11588,1498,52102,Commercial-Broadway Station @ Bay 1,BUS ZN,49.262213,-123.068963,4561,58.000383070937986
11589,1499,52094,Commercial-Broadway Station @ Bay 4,BUS ZN,49.262426,-123.069432,4561,26.051329576431677
4523,1500,54473,Eastbound W Georgia St @ Richards St,BUS ZN,49.280989,-123.115989,2650,27.932241249256112
11638,1501,50094,Westbound W Pender St @ Hamilton St,BUS ZN,49.282472,-123.11137,2819,49.33317357073316
11636,1502,58235,Southbound Abbott St @ W Pender St,BUS ZN,49.28074,-123.107725,2930,38.93061173004564
11632,1503,50156,Westbound E 41 Ave @ Main St,BUS ZN,49.233207,-123.102082,3193,44.56898260433284
909,1504,50902,Westbound Lougheed Hwy @ Skeena St,BUS ZN,49.263328,-123.028889,6340,33.33563334879301
8140,1505,58043,Kootenay Loop @ Bay 4,BUS ZN,49.281365,-123.025918,6457,32.692722141687156
908,1506,50901,Lougheed Hwy @ Boundary Loop,BUS ZN,49.265467,-123.024843,6450,80.34518333842166
8637,1507,51225,Northbound Commercial Dr @ E 3rd Ave,BUS ZN,49.268043,-123.06953,4573,29.57670997448175
8634,1508,58254,Eastbound W Georgia St @ Bidwell St,BUS ZN,49.291212,-123.131834,1992,46.41129229068349
9487,1509,58722,Eastbound W Georgia St @ Gilford St,BUS ZN,49.293655,-123.135601,1862,22.233248090462197
58,1510,50058,Northbound Macdonald St @ W 12 Ave,BUS ZN,49.261778,-123.168164,787,45.85377632211411
56,1511,50056,Northbound Macdonald St @ W 16 Ave,BUS ZN,49.258079,-123.168299,775,46.946275623023766
2995,1512,52964,Northbound Boundary Rd @ Albert St,BUS ZN,49.28231,-123.02331,6550,34.10387640563934
53,1513,50053,Westbound Davie St @ Cardero St,BUS ZN,49.28546,-123.138909,1718,33.38873203081729
2997,1514,52966,Northbound N Boundary Rd @ Oxford St,BUS ZN,49.285924,-123.023238,6555,34.05767693069056
55,1515,50055,Eastbound W 16 Ave @ Carnarvon St,BUS ZN,49.257583,-123.17185,697,33.4262563632975
54,1516,50054,Eastbound W 16 Ave @ Trutch St,BUS ZN,49.257636,-123.175459,586,51.168398940602664
51,1517,50051,Westbound Davie St @ Jervis St,BUS ZN,49.283006,-123.135121,1880,27.67356599728948
50,1518,50050,Westbound Davie St @ Bute St,BUS ZN,49.282009,-123.133574,1946,30.67754402076342
2996,1519,52965,Northbound Boundary Rd @ Triumph St,BUS ZN,49.284094,-123.023268,6552,32.03639837623439
11038,1520,61091,Eastbound W 16 Ave @ Trafalgar St,BUS ZN,49.257427,-123.16452,879,33.182476455320824
11039,1521,61089,Eastbound W 16 Ave @ Blenheim St,BUS ZN,49.257689,-123.178434,554,30.280507880138906
429,1522,50425,Eastbound E Cordova St @ Main St,BUS ZN,49.282203,-123.098943,3298,47.76365437282321
428,1523,50424,Southbound Cambie St @ W 37 Ave,BUS ZN,49.237007,-123.11629,2651,32.252334791729716
420,1524,50416,Southbound Cambie St @ W 18 Ave,BUS ZN,49.254674,-123.115282,2686,26.512147338546676
855,1525,50848,Westbound E Broadway @ St. George St,BUS ZN,49.262598,-123.093535,3584,42.171652944746526
856,1526,50849,Westbound E Broadway @ Prince Edward St,BUS ZN,49.262835,-123.096513,3422,36.64565428198617
857,1527,50850,Westbound E Broadway @ Scotia St,BUS ZN,49.262926,-123.098697,3324,20.65018746875769
11353,1528,50136,Oakridge-41st Ave Station @ Bay 2,BUS ZN,49.23344,-123.116867,2641,51.28178527392218
11352,1529,61027,Broadway-City Hall Station @ Bay 2,BUS ZN,49.262826,-123.11464,2698,46.087829358066415
11350,1530,50981,Oakridge-41st Ave Station @ Bay 1,BUS ZN,49.233099,-123.116479,2641,53.50522883842988
11354,1531,61281,Oakridge-41st Ave Station  @ Bay 4,BUS ZN,49.233712,-123.117599,2583,22.183534977522985
12110,1532,61990,Eastbound Kingsway @ Gladstone St,BUS ZN,49.243685,-123.062323,4938,40.859105410746494
12115,1533,59536,Southbound Main St @ E 28 Ave,BUS ZN,49.245403,-123.101378,3204,35.46813534015249
12116,1534,51948,Westbound SW Marine Dr @ Heather St,BUS ZN,49.207414,-123.123941,2314,36.252566925890925
1800,1535,51786,Westbound Vanness Ave @ Melbourne St,BUS ZN,49.236726,-123.028401,6366,29.91471592633568
1809,1536,51795,Westbound SE Marine Dr @ Fieldstone Ave,BUS ZN,49.208441,-123.03581,6013,179.39965076060759
1808,1537,51794,Westbound SE Marine Dr @ Matheson Cres,BUS ZN,49.208224,-123.031482,6246,46.32764785317842
1547,1538,51535,Eastbound E 22 Ave @ Cassiar St,BUS ZN,49.250536,-123.030547,6230,37.08649046171646
1498,1540,51486,Eastbound W 16 Ave @ Blanca St,BUS ZN,49.258259,-123.214903,8,38.33389734592699
1499,1541,51487,Eastbound W 16 Ave @ Tolmie St,BUS ZN,49.25819,-123.21185,29,38.061441883782564
423,1542,50419,King Edward Station @ Bay 4,BUS ZN,49.248634,-123.115722,2674,45.872410680847395
422,1543,50418,Southbound Cambie St @ W 22 Ave,BUS ZN,49.250985,-123.115447,2679,25.70474866649121
426,1544,50422,Southbound Cambie St @ W 33 Ave,BUS ZN,49.24075,-123.118651,2552,40.136732915790105
524,1545,50520,Eastbound E Pender St @ Main St,BUS ZN,49.280329,-123.100047,3289,27.664216039068037
520,1546,50516,Westbound Powell St @ Gore Ave,BUS ZN,49.283223,-123.098134,3390,31.106152706408963
1235,1547,51226,Northbound Commercial Dr @ E 1st Ave,BUS ZN,49.269918,-123.069518,4575,36.587846174525204
1236,1548,51227,Northbound Commercial Dr @ Grant St,BUS ZN,49.271608,-123.069481,4578,23.436684588396243
1237,1549,51228,Northbound Commercial Dr @ Charles St,BUS ZN,49.273323,-123.06943,4580,33.24143912785153
1231,1550,58327,Commercial-Broadway Station @ Bay 3,BUS ZN,49.262699,-123.069636,4562,25.92122050561506
1238,1551,51229,Northbound Commercial Dr @ Napier St,BUS ZN,49.275134,-123.069418,4583,33.38944155107133
1964,1552,51947,Eastbound SW Marine Dr @ Balaclava St,BUS ZN,49.228712,-123.175122,594,60.26817245995754
8289,1553,58051,Eastbound Keefer Place @ Taylor St,BUS ZN,49.279294,-123.105515,2987,47.87747278936099
9359,1554,58030,Bus Stop @ Pne Coliseum Loop,BUS ZN,49.285674,-123.043632,5750,30.741147409399563
12138,1555,57893,Waterfront Station @ West Coast Express,WCE1A,49.286502,-123.110998,2796,147.19678970680755
1961,1556,51944,Southbound Dunbar St @ W 43 Ave,BUS ZN,49.232611,-123.18547,376,28.206399811325248
1962,1557,51945,Southbound Dunbar St @ SW Marine Dr,BUS ZN,49.231131,-123.185505,371,54.82846034105937
2228,1558,52206,Westbound SE Marine Dr @ Inverness St,BUS ZN,49.211201,-123.08071,4069,10.771798317852094
2229,1559,52207,Westbound SE Marine Dr @ Ross St,BUS ZN,49.211217,-123.083635,3940,30.523707927276895
2226,1560,52204,Westbound SE Marine Dr @ Argyle St,BUS ZN,49.211151,-123.072699,4454,46.78413173743402
2227,1561,52205,Westbound SE Marine Dr @ Knight St,BUS ZN,49.21122,-123.076755,4236,30.902597750963086
2224,1562,52202,Westbound SE Marine Dr @ City Edge Place,BUS ZN,49.207979,-123.026647,6397,179.99589735933225
1,1564,50001,Westbound Davie St @ Bidwell St,BUS ZN,49.286458,-123.140424,1657,29.227547972797545
2082,1565,52065,Eastbound W 2nd Ave @ Fir St,BUS ZN,49.269638,-123.140065,1628,52.031885787774954
2083,1566,58661,Eastbound W 2nd Ave @ Anderson St,BUS ZN,49.269468,-123.138366,1742,31.50889109776469
2081,1567,52087,Northbound Fir St @ W 4th Ave,BUS ZN,49.268248,-123.140709,1623,36.18496936757881
2086,1568,52069,Eastbound Lameys Mill Rd @ Sitka Square,BUS ZN,49.26632,-123.128703,2136,12.635687090160408
2084,1569,52067,Eastbound Lameys Mill Rd @ Fountain Way Court,BUS ZN,49.267431,-123.135141,1857,14.816636444430445
2085,1570,52068,Eastbound Lameys Mill Rd @ Alder Crossing,BUS ZN,49.266544,-123.131643,1996,33.502738283340385
1264,1571,51254,Southbound Victoria Dr @ Newport Ave,BUS ZN,49.215036,-123.066092,4708,31.70001927723998
9135,1572,50865,Southbound Granville St @ W 70 Ave,BUS ZN,49.20811,-123.140711,1631,48.85230925849652
1006,1573,50997,Northbound Cambie St @ W 54 Ave,BUS ZN,49.22204,-123.116425,2623,36.67567842977012
1004,1574,50995,Northbound Cambie St @ W 59 Ave,BUS ZN,49.217289,-123.116608,2618,42.98200366489867
11019,1575,61121,Westbound W 16 Ave @ Cambie St,BUS ZN,49.257005,-123.11568,2657,22.197834170996188
11014,1576,61096,Eastbound W 16 Ave @ Oak St,BUS ZN,49.256969,-123.127706,2210,35.93927458023163
11015,1577,61112,Westbound E 33 Ave @ Victoria Dr,BUS ZN,49.240047,-123.064935,4789,27.684782723702757
11016,1578,61090,Eastbound W 16 Ave @ Macdonald St,BUS ZN,49.257525,-123.167913,819,20.006120551202116
11010,1579,61104,Eastbound E 33 Ave @ Fraser St,BUS ZN,49.240241,-123.089815,3674,38.047858085671656
11011,1580,61114,Westbound E 33 Ave @ Knight St,BUS ZN,49.240276,-123.076877,4265,36.295862402715954
11013,1581,61093,Eastbound W 16 Ave @ East Blvd,BUS ZN,49.257204,-123.15198,1219,30.757020880892572
11333,1583,51725,Eastbound Burke St @ Boundary Rd,BUS ZN,49.236949,-123.022912,6525,71.84709504220588
11337,1584,50085,Yaletown-Roundhouse Station @ Bay 3,BUS ZN,49.27402,-123.121945,2443,42.25275043993947
928,1585,50920,Westbound W Broadway @ Ontario St,BUS ZN,49.263101,-123.105291,3035,31.84967415553716
11485,1586,50628,Westbound Robson St @ Cardero St,BUS ZN,49.289693,-123.132542,1981,34.529682345573995
11484,1587,50627,Westbound Robson St @ Broughton St,BUS ZN,49.288152,-123.130152,2095,32.1348330749166
11483,1588,50626,Westbound Robson St @ Bute St,BUS ZN,49.286249,-123.127216,2217,33.2443327996834
11481,1589,50624,Westbound Robson St @ Burrard St,BUS ZN,49.283556,-123.123086,2379,36.393116255227504
11480,1590,50614,Eastbound Robson St @ Bute St,BUS ZN,49.285774,-123.126771,2217,28.693045233672954
929,1591,50921,Westbound W Broadway @ Columbia St,BUS ZN,49.263212,-123.109868,2885,33.3110362007002
12681,1592,53312,Burrard Station @ Bay 6,BUS ZN,49.28616,-123.118293,2588,58.491031301523705
4497,1593,54447,Westbound W Georgia St @ Bute St,BUS ZN,49.287432,-123.125567,2283,40.84629710266011
4495,1594,58504,Westbound W Georgia St @ Granville St,BUS ZN,49.28232,-123.117661,2579,37.27537464983446
4494,1595,54444,Westbound W Georgia St @ Homer St,BUS ZN,49.280921,-123.115491,2689,43.40699707497139
1829,1596,51815,Northbound Clarendon St @ E 39 Ave,BUS ZN,49.235129,-123.055396,5261,29.656933337684574
1828,1597,51814,Northbound Clarendon St @ E 41 Ave,BUS ZN,49.23319,-123.055335,5266,41.174751940065306
1825,1598,51811,Northbound Elliott St @ E 46 Ave,BUS ZN,49.228739,-123.054556,5308,29.895226476461758
1824,1599,51810,Northbound Elliott St @ E 49 Ave,BUS ZN,49.225178,-123.054616,5287,41.72487366691306
1827,1600,51813,Northbound Clarendon St @ E 43 Ave,BUS ZN,49.231191,-123.055124,5271,37.037454044086815
1826,1601,51812,Northbound Elliott St @ Waverley Ave,BUS ZN,49.227113,-123.054592,5294,39.322039076939014
1821,1602,51807,Eastbound Ashburn St @ Elliott St,BUS ZN,49.218226,-123.054997,5346,57.39713851537564
1820,1603,51806,Northbound Muirfield Dr @ Lynbrook Dr,BUS ZN,49.217274,-123.055257,5273,37.16667953460378
1823,1604,51809,Northbound Elliott St @ E 52 Ave,BUS ZN,49.222238,-123.054709,5285,30.309328957994584
1822,1605,51808,Northbound Elliott St @ E 54 Ave,BUS ZN,49.220497,-123.0548,5282,31.99208076108922
2140,1606,52120,Southbound Hudson St @ W 72 Ave,BUS ZN,49.2063,-123.134764,1883,66.52591618589959
21,1607,50021,Eastbound E Pender St @ Carrall St,BUS ZN,49.280394,-123.103799,3055,42.94746913397529
60,1608,50060,Northbound Macdonald St @ W Broadway,BUS ZN,49.264458,-123.168174,794,43.73470359155521
61,1609,50061,Northbound Macdonald St @ W 7th Ave,BUS ZN,49.266074,-123.168302,780,31.48100249655154
63,1610,50063,Northbound Macdonald St @ W 4th Ave,BUS ZN,49.268707,-123.168204,786,38.90523550698362
64,1611,50064,Northbound Macdonald St @ W 2nd Ave,BUS ZN,49.270381,-123.168148,789,26.794808929816355
69,1612,50069,Eastbound Cornwall Ave @ Yew St,BUS ZN,49.272507,-123.154568,1142,29.14502490932432
508,1613,50504,Westbound E Hastings St @ Hawks Ave,BUS ZN,49.2812,-123.087667,3805,39.76287569964519
509,1614,50505,Westbound E Hastings St @ Princess Ave,BUS ZN,49.281282,-123.092019,3616,41.78186788206918
506,1615,50502,Westbound E Hastings St @ Glen Dr,BUS ZN,49.281111,-123.081789,4057,40.154602811093504
507,1616,50503,Westbound E Hastings St @ Campbell Ave,BUS ZN,49.281155,-123.085249,3894,36.5413709626294
504,1617,50500,Westbound E Hastings St @ McLean Dr,BUS ZN,49.281378,-123.074606,4373,38.081974305653404
505,1618,50501,Westbound E Hastings St @ Clark Dr,BUS ZN,49.281445,-123.077888,4254,60.51597326648176
503,1619,50499,Westbound E Hastings St @ Commercial Dr,BUS ZN,49.281362,-123.071174,4525,59.86084729092517
500,1620,50496,Westbound Powell St @ Victoria Dr,BUS ZN,49.2848,-123.065973,4778,35.09045607469558
1212,1621,51203,Northbound Victoria Dr @ Fraserview Dr,BUS ZN,49.212765,-123.065964,4704,57.86475757726935
1213,1622,51204,Northbound Victoria Dr @ E 61 Ave,BUS ZN,49.214832,-123.065913,4706,35.45713648011922
1211,1623,51202,Westbound Harrison Dr @ Victoria Dr,BUS ZN,49.210673,-123.065781,4699,22.535483718012767
1216,1624,51207,Northbound Victoria Dr @ E 54 Ave,BUS ZN,49.220662,-123.065738,4720,41.33899672013905
635,1625,50629,Southbound Denman St @ Robson St,BUS ZN,49.29124,-123.135926,1853,44.86112819452968
636,1626,50630,Southbound Denman St @ Barclay St,BUS ZN,49.289924,-123.137908,1767,30.65589598379865
637,1627,50631,Southbound Denman St @ Comox St,BUS ZN,49.288522,-123.140021,1673,29.618095466822048
638,1628,50632,Southbound Denman St @ Pendrell St,BUS ZN,49.287773,-123.141166,1608,25.15853150914676
639,1629,50633,Eastbound Davie St @ Denman St,BUS ZN,49.286705,-123.141124,1577,77.51514114098053
1218,1630,51209,Northbound Victoria Dr @ E 49 Ave,BUS ZN,49.225458,-123.065603,4739,32.55746041994765
927,1631,50919,Westbound E Broadway @ Prince Albert St,BUS ZN,49.262579,-123.087643,3801,37.600962749244374
11674,1632,61609,Joyce Station @ Bay 5,BUS ZN,49.238127,-123.031478,6209,29.288206295142796
12329,1633,60102,Southbound Cambie St @ Nelson St,BUS ZN,49.275952,-123.118424,2578,27.717733734235786
753,1634,50746,Northbound Oak St @ W 59 Ave,BUS ZN,49.217412,-123.129005,2105,38.37349396557393
752,1635,50745,Northbound Oak St @ Park Dr,BUS ZN,49.214711,-123.129909,2079,30.028023814629176
750,1636,50743,Northbound Oak St @ W 67 Ave,BUS ZN,49.211074,-123.130033,2074,39.95733743459385
755,1637,50748,Northbound Oak St @ W 54 Ave,BUS ZN,49.221798,-123.128353,2143,30.496763810099203
754,1638,50747,Northbound Oak St @ W 57 Ave,BUS ZN,49.219518,-123.128433,2141,37.00502870280795
759,1639,50752,Northbound Oak St @ W 46 Ave,BUS ZN,49.229544,-123.128098,2158,28.803890066531597
758,1640,50751,Northbound Oak St @ W 49 Ave,BUS ZN,49.226867,-123.128159,2152,37.02487611285199
1025,1641,51016,Northbound West Blvd @ W 51 Ave,BUS ZN,49.224765,-123.15354,1166,26.981775862708673
1020,1642,51011,Northbound Angus Dr @ W 64 Ave,BUS ZN,49.21358,-123.148376,1337,34.984946885271334
1023,1643,51014,Northbound West Blvd @ W 57 Ave,BUS ZN,49.219817,-123.150612,1272,38.52614902783345
1022,1644,51013,Northbound West Blvd @ W 60 Ave,BUS ZN,49.217447,-123.14921,1318,36.352443570671944
8045,1645,57970,Nanaimo Station @ Platform 2,ZN 1,49.248283,-123.055904,5167,55.0683614210593
11311,1646,61215,Yaletown-Roundhouse Station @ Bay 2,BUS ZN,49.274278,-123.121876,2404,34.09424961501425
11310,1647,50023,Yaletown-Roundhouse Station @ Bay 1,BUS ZN,49.274863,-123.122521,2382,13.140933227456653
1564,1649,51552,Westbound Kincaid St @ Boundary Rd,BUS ZN,49.248883,-123.023167,6510,117.40409163374763
1565,1650,51553,Westbound E 22 Ave @ Boundary Rd,BUS ZN,49.250709,-123.024281,6511,42.126421606757745
1738,1651,51724,Northbound Boundary Rd @ Vanness Ave,BUS ZN,49.235076,-123.023292,6526,30.61060193988917
1567,1652,51555,Westbound E 22 Ave @ Rupert St,BUS ZN,49.250678,-123.034851,6122,77.61842108531827
12668,1653,60400,Westbound E 41 Ave @ Fraser St,BUS ZN,49.233019,-123.091581,3668,76.8571464277867
12666,1654,60403,Southbound Joyce St @ Kingsway,BUS ZN,49.233624,-123.036583,6076,78.35895097581768
10809,1655,50477,Northbound Cambie St @ W 20 Ave,BUS ZN,49.253243,-123.115102,2683,30.080310475380564
10804,1656,50423,Southbound Cambie St @ W 35 Ave,BUS ZN,49.238762,-123.116678,2622,33.606874898344415
10805,1657,50471,Northbound Cambie St @ W 33 Ave,BUS ZN,49.241409,-123.11818,2552,40.72854976282797
10806,1658,50476,Northbound Cambie St @ W 22 Ave,BUS ZN,49.251472,-123.115164,2679,32.33790791048052
10807,1659,60681,Southbound Knight St @ E 19 Ave,BUS ZN,49.253194,-123.07613,4286,35.46248669062423
10802,1660,50421,Southbound Cambie St @ W 31 Ave,BUS ZN,49.242949,-123.118428,2570,34.60965254232722
10803,1661,50469,Northbound Cambie St @ W 37 Ave,BUS ZN,49.237495,-123.1158,2651,32.69669793453033
1849,1662,51835,Eastbound SE Marine Dr @ Elliott St,BUS ZN,49.207019,-123.056143,5151,51.45130746591931
1516,1663,51504,Eastbound W King Edward Ave @ Cypress St,BUS ZN,49.249462,-123.148494,1327,24.158611925344
1843,1664,51829,Southbound Muirfield Dr @ Hoylake Ave,BUS ZN,49.215481,-123.055616,5268,41.90522413827925
1842,1665,51828,Southbound Muirfield Dr @ Ashburn St,BUS ZN,49.217307,-123.055499,5258,41.16217158846912
1841,1666,51827,Southbound Elliott St @ E 56 Ave,BUS ZN,49.218817,-123.055039,5283,19.669219272912233
1847,1667,51833,Eastbound SE Marine Dr @ Gladstone St,BUS ZN,49.208087,-123.061681,4897,51.321024610709486
1846,1668,51832,Eastbound SE Marine Dr @ Victoria Dr,BUS ZN,49.209318,-123.065395,4698,65.17343545320783
1845,1669,51831,Southbound Muirfield Dr @ Scarboro Ave,BUS ZN,49.212549,-123.05788,5114,12.15350832388891
1844,1670,51830,Southbound Muirfield Dr @ Bobolink Ave,BUS ZN,49.214167,-123.056564,5172,20.161867436412287
2164,1671,52144,Eastbound SE Marine Dr @ City Edge Place,BUS ZN,49.207927,-123.025837,6559,179.8114294418515
1909,1673,51895,Westbound W 41 Ave @ Holland St,BUS ZN,49.234836,-123.19284,240,38.41339211527485
1907,1674,51893,Dunbar Loop @ Bay 5,BUS ZN,49.234831,-123.185966,378,47.293357616728976
1902,1675,51888,Eastbound W 41 Ave @ Crown St,BUS ZN,49.234685,-123.194154,213,33.6717676137603
12815,1676,60574,Westbound W 4th Ave @ Yew St,BUS ZN,49.268267,-123.155606,1134,37.111858144320884
12813,1677,60572,Eastbound W 4th Ave @ Yew St,BUS ZN,49.268084,-123.154618,1134,37.46689592028466
1279,1678,51269,Northbound Macdonald St @ W 22 Ave,BUS ZN,49.253089,-123.167687,814,34.289816984889335
2042,1679,52025,Westbound E 49 Ave @ St. Catherines St,BUS ZN,49.225497,-123.087115,3819,37.101267753211104
613,1680,50607,Westbound Davie St @ Denman St,BUS ZN,49.287084,-123.141411,1577,33.24228410232352
1273,1682,51263,Northbound Mackenzie St @ W 30 Ave,BUS ZN,49.245547,-123.17011,745,43.8677069245329
616,1683,50610,Northbound Denman St @ Haro St,BUS ZN,49.290911,-123.136163,1812,28.02245977452288
1275,1684,51265,Northbound Quesnel Dr @ W King Edward Ave,BUS ZN,49.249571,-123.1717,702,55.138191895023446
1276,1685,51266,Northbound Macdonald St @ W King Edward Ave,BUS ZN,49.248517,-123.167771,809,48.77953455869316
1277,1686,51267,Northbound Macdonald St @ Oliver Cres,BUS ZN,49.249455,-123.167732,810,37.75779191792948
9124,1689,58136,Southbound Granville St @ W King Edward Ave,BUS ZN,49.248838,-123.139224,1697,57.275604874694075
9128,1690,58705,Westbound W Georgia St @ Burrard St,BUS ZN,49.284954,-123.121726,2449,75.52323002236136
9129,1691,54445,Westbound W Georgia St @ Seymour St,BUS ZN,49.28214,-123.117372,2612,37.56535190579469
11698,1692,61645,Southbound Elliott St @ E 54 Ave,BUS ZN,49.220551,-123.054963,5282,38.00332720310889
11695,1693,61099,Eastbound E 29 Ave @ Cambie St,BUS ZN,49.245108,-123.114568,2665,71.42936189528561
1070,1695,51061,Northbound Earles St @ Kingsway,BUS ZN,49.238002,-123.048391,5570,48.36424954685606
12603,1696,60269,Northbound Burrard St @ Smithe St,BUS ZN,49.282359,-123.124019,2316,30.130787195361776
12348,1697,60116,Eastbound Davie St @ Granville St,BUS ZN,49.276918,-123.125976,2260,29.365510925152453
9051,1698,58499,Eastbound E Broadway @ Clark Dr,BUS ZN,49.262263,-123.076191,4310,47.703767577167525
9054,1699,58502,Westbound W Broadway @ Willow St,BUS ZN,49.263437,-123.12286,2422,77.41743647641529
9056,1700,54448,Westbound W Georgia St @ Broughton St,BUS ZN,49.289356,-123.128526,2163,42.58957363251162
774,1701,50767,Northbound Granville St @ W 49 Ave,BUS ZN,49.227422,-123.139703,1665,51.69505575457211
777,1702,50770,Northbound Granville St @ W 43 Ave,BUS ZN,49.232803,-123.139507,1669,38.3773512342422
776,1703,50769,Northbound Granville St @ W 46 Ave,BUS ZN,49.229985,-123.139609,1667,33.241192439867724
771,1704,50764,Northbound Granville St @ W 55 Ave,BUS ZN,49.221123,-123.139943,1655,37.484715327369244
770,1705,50763,Northbound Granville St @ W 57 Ave,BUS ZN,49.219694,-123.14,1654,23.438306824803494
772,1706,50765,Northbound Granville St @ W 53 Ave,BUS ZN,49.222949,-123.139886,1660,39.17880082776724
779,1707,50772,Eastbound E Broadway @ Kingsway,BUS ZN,49.262719,-123.098055,3324,65.6268145920157
778,1708,50771,Eastbound Kingsway @ Main St,BUS ZN,49.263824,-123.100514,3263,26.889776868605168
77,1709,50077,Eastbound W Pender St @ Granville St,BUS ZN,49.284791,-123.115231,2703,32.75109420285752
76,1710,50076,Eastbound W Pender St @ Burrard St,BUS ZN,49.286121,-123.117245,2624,39.47567580657491
75,1711,50075,Northbound Burrard St @ Davie St,BUS ZN,49.278885,-123.129252,2113,21.976436224844058
74,1712,50074,Eastbound Davie St @ Burrard St,BUS ZN,49.278793,-123.128901,2113,36.71693581821008
73,1713,50073,Northbound Burrard St @ Pacific St,BUS ZN,49.277226,-123.131783,1978,50.55004398927149
72,1714,50072,Eastbound Cornwall Ave @ Cypress St,BUS ZN,49.272368,-123.14734,1380,33.93385848412673
70,1715,50070,Eastbound Cornwall Ave @ Arbutus St,BUS ZN,49.272471,-123.152226,1212,27.200536879326425
78,1716,50078,Eastbound W Pender St @ Seymour St,BUS ZN,49.283753,-123.113589,2727,34.070414002167695
1042,1717,58723,Northbound Arbutus St @ W 16 Ave,BUS ZN,49.257604,-123.152846,1195,37.06449841607949
1047,1718,51038,Southbound Renfrew St @ E Georgia St,BUS ZN,49.277967,-123.044227,5741,34.83764382521454
1049,1719,51040,Southbound Renfrew St @ William St,BUS ZN,49.273888,-123.044287,5736,37.39868880090128
841,1720,50834,Northbound Fraser St @ E 35 Ave,BUS ZN,49.23862,-123.090274,3673,36.07709152330997
11050,1721,61113,Westbound E 33 Ave @ Fleming St,BUS ZN,49.240204,-123.071802,4449,30.29437840953108
11051,1722,61109,Eastbound E 33 Ave @ Nanaimo St,BUS ZN,49.239712,-123.058302,5077,29.931390550556543
11052,1723,61107,Eastbound E 33 Ave @ Argyle St,BUS ZN,49.240064,-123.070849,4513,6.5552444476881
11053,1724,51934,Westbound NW Marine Dr @ Discovery St,BUS ZN,49.271904,-123.203022,126,43.17082594465786
11054,1725,51910,Eastbound NW Marine Dr @ Discovery St,BUS ZN,49.271953,-123.203426,126,66.61089964339806
11055,1726,51937,Westbound NW Marine Dr @ Sasamat St,BUS ZN,49.274502,-123.209135,71,32.28700557808523
11056,1727,51912,Eastbound NW Marine Dr @ Locarno Cres,BUS ZN,49.268799,-123.200827,131,44.55490158015939
11057,1728,61117,Westbound E 33 Ave @ Prince Edward St,BUS ZN,49.240485,-123.097295,3426,29.48573940449581
11058,1729,61115,Westbound E 33 Ave @ Windsor St,BUS ZN,49.240328,-123.085243,3851,33.23301789537967
11059,1730,61094,Eastbound W 16 Ave @ Burrard St,BUS ZN,49.257121,-123.146366,1440,28.072469177654824
1504,1731,51492,Eastbound W 16 Ave @ Highbury St,BUS ZN,49.257833,-123.187544,324,36.34552639988583
860,1732,50853,Southbound Granville St @ W 41 Ave,BUS ZN,49.233799,-123.139775,1670,60.281752418981775
863,1733,50856,Southbound Granville St @ W 49 Ave,BUS ZN,49.226415,-123.139991,1664,61.77436610077299
865,1734,50858,Southbound Granville St @ W 54 Ave,BUS ZN,49.221382,-123.140195,1658,37.23869091693899
864,1735,50857,Southbound Granville St @ W 52 Ave,BUS ZN,49.223822,-123.140097,1663,30.124088273394914
867,1736,50860,Southbound Granville St @ W 59 Ave,BUS ZN,49.217067,-123.140361,1648,32.540055669575494
866,1737,50859,Southbound Granville St @ W 57 Ave,BUS ZN,49.218967,-123.140294,1653,43.662483591866135
840,1738,50833,Northbound Fraser St @ E 37 Ave,BUS ZN,49.236772,-123.090324,3671,26.47742563957218
12504,1739,61985,Westbound W 2nd Ave @ Crowe St,BUS ZN,49.26817,-123.111966,2802,35.65991081355047
1617,1740,51605,Southbound Rupert St @ E 41 Ave,BUS ZN,49.232545,-123.043201,5769,47.20768476548521
10863,1741,50996,Northbound Cambie St @ W 57 Ave,BUS ZN,49.219328,-123.116528,2620,35.248812418340876
10861,1742,50994,Northbound Cambie St @ W 61 Ave,BUS ZN,49.215412,-123.116683,2614,47.640080078950184
12722,1744,50532,Southbound Granville St @ Nelson St,BUS ZN,49.27941,-123.12295,2376,17.851876113742325
10480,1746,59925,Northbound Quebec St @ Terminal Ave,BUS ZN,49.273368,-123.101534,3181,41.82456654837412
10482,1747,59927,Northbound Quebec St @ National Ave,BUS ZN,49.275246,-123.101804,3170,16.552239312674967
10486,1748,59928,Eastbound National Ave @ Main St,BUS ZN,49.274846,-123.099334,3321,19.13315148115896
10487,1749,51133,Westbound Keefer St @ Columbia St,BUS ZN,49.279267,-123.102946,3154,54.07187910594883
890,1750,50883,Eastbound E Broadway @ St. Catherines St,BUS ZN,49.262351,-123.084744,3878,35.92378957883073
891,1751,50884,Eastbound E Broadway @ Glen Dr,BUS ZN,49.262322,-123.080869,4041,36.26454406029607
892,1752,50885,Eastbound E Broadway @ Clark Dr,BUS ZN,49.262269,-123.076797,4212,51.32681325206115
893,1753,50886,Eastbound E Broadway @ Woodland Dr,BUS ZN,49.262258,-123.073194,4393,32.057819336544796
895,1754,50888,Eastbound E Broadway @ Victoria Dr,BUS ZN,49.262171,-123.065398,4723,35.08892936438921
896,1755,50889,Eastbound E Broadway @ Lakewood Dr,BUS ZN,49.262171,-123.061609,4927,30.63265095139538
897,1756,50890,Eastbound E Broadway @ Garden Dr,BUS ZN,49.26213,-123.057623,5093,39.20604391248627
898,1757,50891,Eastbound E Broadway @ Nanaimo St,BUS ZN,49.261889,-123.055558,5296,64.583692392489
899,1758,50892,Eastbound E Broadway @ Penticton St,BUS ZN,49.261916,-123.051333,5401,62.9989892669067
1782,1761,51768,Southbound Boundary Rd @ Henning Dr,BUS ZN,49.263322,-123.023842,6520,96.74623821923186
1783,1762,51769,Southbound Boundary Rd @ Regent St,BUS ZN,49.259136,-123.023869,6518,109.04461264306346
1785,1763,51771,Southbound Boundary Rd @ Grandview Hwy,BUS ZN,49.257666,-123.023879,6516,55.83344114821046
678,1764,50671,Southbound Nanaimo St @ E Hastings St,BUS ZN,49.280782,-123.056725,5226,42.16950576144905
674,1765,50667,Northbound Alma St @ W Broadway,BUS ZN,49.264644,-123.185714,356,33.04568444642126
675,1766,50668,Northbound Alma St @ W 7th Ave,BUS ZN,49.266385,-123.185659,358,36.81979940134852
676,1767,50669,Southbound Nanaimo St @ Dundas St,BUS ZN,49.284388,-123.05668,5230,45.87451116206617
670,1768,50663,Northbound Slocan St @ Ward St,BUS ZN,49.241686,-123.052298,5387,27.518751650999768
671,1769,50664,Northbound Slocan St @ Euclid Ave,BUS ZN,49.243511,-123.050495,5470,34.908128857213036
672,1770,50665,Westbound E 22 Ave @ Slocan St,BUS ZN,49.250756,-123.050472,5501,64.26124317387216
1256,1771,51246,Southbound Victoria Dr @ Waverley Ave,BUS ZN,49.226693,-123.065819,4742,44.87229778825754
1525,1772,51513,King Edward Station @ Bay 3,BUS ZN,49.248866,-123.114707,2674,51.361072340371926
1254,1773,51244,Southbound Victoria Dr @ E 41 Ave,BUS ZN,49.232253,-123.065682,4762,23.08273471186743
1255,1774,51245,Southbound Victoria Dr @ E 43 Ave,BUS ZN,49.230264,-123.065727,4756,13.967944433563611
1252,1775,51242,Southbound Commercial Dr @ E 4th Ave,BUS ZN,49.266576,-123.069808,4569,19.516979745004498
1253,1776,51243,Southbound Commercial Dr @ E 6th Ave,BUS ZN,49.264806,-123.069842,4566,31.27779641996508
1250,1777,51240,Southbound Commercial Dr @ Graveley St,BUS ZN,49.270207,-123.069755,4576,35.06951049636979
1251,1778,51241,Southbound Commercial Dr @ E 2nd Ave,BUS ZN,49.268438,-123.069776,4574,30.400381878952395
1258,1779,51248,Southbound Victoria Dr @ E 49 Ave,BUS ZN,49.224857,-123.065873,4739,37.0991951095851
1259,1780,51249,Southbound Victoria Dr @ E 51 Ave,BUS ZN,49.223127,-123.065922,4731,10.59569015633694
11502,1781,59919,Northbound Pat Quinn Way @ Pacific Blvd,BUS ZN,49.277432,-123.107546,2926,36.29728670724504
982,1782,50973,Eastbound W Georgia St @ Broughton St,BUS ZN,49.288694,-123.127919,2163,43.18282603121494
983,1783,50974,Eastbound W Georgia St @ Bute St,BUS ZN,49.286717,-123.124885,2283,52.79059966796036
980,1784,50971,Southbound Victoria Dr @ E 26 Ave,BUS ZN,49.247318,-123.065204,4801,35.74104326296432
10046,1785,59396,Westbound Beach Ave @ Howe St,BUS ZN,49.274962,-123.132056,2013,32.28501967441479
11523,1786,61293,Northbound Granville St @ W Georgia St,BUS ZN,49.282317,-123.118291,2579,23.37123984147321
1967,1787,51950,Eastbound W 49 Ave @ McCleery St,BUS ZN,49.227269,-123.168448,767,35.08551392341618
12367,1788,61954,Westbound W 2nd Ave @ Manitoba St,BUS ZN,49.269368,-123.106978,2967,32.48358224610973
719,1793,50712,Westbound E 41 Ave @ St. George St,BUS ZN,49.233046,-123.094859,3510,25.142174286850953
718,1794,50711,Westbound E 41 Ave @ Fraser St,BUS ZN,49.233019,-123.091171,3668,47.98836569896316
717,1795,50710,Westbound E 41 Ave @ Chester St,BUS ZN,49.232994,-123.089838,3718,44.541159305445944
716,1796,50709,Westbound E 41 Ave @ St. Catherines St,BUS ZN,49.232938,-123.087318,3813,32.497938996092834
715,1797,50708,Westbound E 41 Ave @ Windsor St,BUS ZN,49.23291,-123.085282,3888,38.10977093955446
714,1798,50707,Westbound E 41 Ave @ Inverness St,BUS ZN,49.232846,-123.080303,4115,39.63474961692927
713,1799,50706,Westbound E 41 Ave @ Knight St,BUS ZN,49.232845,-123.077938,4181,35.82955022378618
711,1800,59094,Westbound E 41 Ave @ Fleming St,BUS ZN,49.232762,-123.07324,4432,28.597429835006455
710,1801,50703,Westbound E 41 Ave @ Commercial St,BUS ZN,49.232719,-123.069244,4607,40.17058669180784
1069,1802,51060,Southbound Earles St @ Horley St,BUS ZN,49.239532,-123.047123,5628,32.32221876542668
1068,1803,51059,Southbound Earles St @ Euclid Ave,BUS ZN,49.240939,-123.045765,5683,38.81725988683997
1061,1804,51052,Southbound Boyd Diversion @ E 22 Ave,BUS ZN,49.250326,-123.044011,5760,17.49719023311751
1060,1805,51051,Southbound Renfrew St @ E 20 Ave,BUS ZN,49.252041,-123.044456,5705,34.8390005853826
1063,1806,51054,Southbound Nootka St @ E 27 Ave,BUS ZN,49.245935,-123.041725,5804,34.45828447967576
1062,1807,51053,Southbound Nootka St @ E 25 Ave,BUS ZN,49.247621,-123.041717,5806,30.443557715439603
1065,1808,51056,29th Avenue Station @ Bay 3,BUS ZN,49.244134,-123.044757,5696,58.55531508409574
1064,1809,51055,Westbound E 29 Ave @ Nootka St,BUS ZN,49.244625,-123.042759,5794,45.23993991128768
1067,1810,51058,Southbound Earles St @ Vanness Ave,BUS ZN,49.242853,-123.043935,5761,35.394247835023535
1066,1811,51057,Southbound Earles St @ E 29 Ave,BUS ZN,49.244188,-123.042637,5794,57.071462396201646
1505,1812,51493,Eastbound W King Edward Ave @ Dunbar St,BUS ZN,49.249918,-123.184491,397,51.62590457148685
12703,1813,60408,Eastbound W 12th Ave @ Arbutus St,BUS ZN,49.260922,-123.152113,1188,66.25534078159998
1630,1814,51618,Eastbound Maquinna Dr @ Stikine Place,BUS ZN,49.215458,-123.031682,6215,21.159478756970703
12705,1815,60410,Westbound W 12th Ave @ Cypress St,BUS ZN,49.260992,-123.148612,1357,29.69124285915396
2060,1816,52043,Westbound W 49 Ave @ Wiltshire St,BUS ZN,49.227122,-123.147056,1415,36.42493774570034
1633,1818,51621,Northbound Matheson Cres @ Champlain Cres,BUS ZN,49.21096,-123.026965,6396,49.21122863598801
2062,1819,52045,Westbound W 49 Ave @ West Blvd,BUS ZN,49.227224,-123.155682,1124,40.383824932059326
12622,1820,60391,Eastbound Great Northern Way @ Carolina St,BUS ZN,49.26668,-123.090557,3656,27.023930502374625
12626,1821,60394,Dunbar Loop @ Bay 4,BUS ZN,49.234836,-123.186649,343,15.280338480237042
12625,1822,60393,Dunbar Loop @ Bay 7,BUS ZN,49.234694,-123.184268,378,77.00061669956823
12708,1823,60413,Eastbound W 12 Ave @ Oak St,BUS ZN,49.260482,-123.12604,2276,45.3897896537565
2067,1824,52050,Westbound SW Marine Dr @ Carnarvon St,BUS ZN,49.228416,-123.17401,638,21.71159908834844
2123,1825,52103,Eastbound Lougheed Hwy @ Boundary Rd,BUS ZN,49.265602,-123.022312,6522,97.20581694813508
2225,1826,52203,Westbound SE Marine Dr @ Victoria Dr,BUS ZN,49.209974,-123.066581,4698,47.77474423390986
132,1827,50132,Eastbound W 41 Ave @ Mackenzie St,BUS ZN,49.234673,-123.169829,733,30.84531011697852
130,1828,50130,Southbound Mackenzie St @ W 37 Ave,BUS ZN,49.238254,-123.170377,734,30.132549988495143
134,1829,50134,Eastbound W 41 Ave @ Willow St,BUS ZN,49.233687,-123.123477,2352,29.696759717755736
139,1830,50139,Eastbound W 41 Ave @ Manitoba St,BUS ZN,49.233142,-123.107725,2919,29.203434438857677
80,1831,50080,Eastbound W Pender St @ Hamilton St,BUS ZN,49.281799,-123.110618,2819,43.39536512496165
81,1832,50081,Southbound Cambie St @ Dunsmuir St,BUS ZN,49.280808,-123.111146,2803,46.96771441722989
8754,1833,60822,Commercial-Broadway Station @ Platform 1,ZN 1,49.26298,-123.068426,4619,31.452397480467013
8752,1834,60818,Rupert Station @ Platform 1,ZN 1,49.260815,-123.032869,6204,134.17245188699712
8753,1835,60820,Renfrew Station @ Platform 1,ZN 1,49.258942,-123.045374,5716,85.28293353148437
656,1836,50650,Eastbound E 41 Ave @ Fleming St,BUS ZN,49.23257,-123.072487,4432,30.114079252182552
657,1837,50651,Eastbound E 41 Ave @ Bruce St,BUS ZN,49.232543,-123.069616,4535,36.88958749923987
654,1838,50648,Eastbound E 41 Ave @ Knight St,BUS ZN,49.23261,-123.077944,4181,35.265073782319284
652,1839,50646,Eastbound E 41 Ave @ Windsor St,BUS ZN,49.232721,-123.08434,3888,33.44396695541026
653,1840,50647,Eastbound E 41 Ave @ Sherbrooke St,BUS ZN,49.232677,-123.080668,4059,37.470571057804825
650,1841,50644,Eastbound E 41 Ave @ Fraser St,BUS ZN,49.232769,-123.090022,3668,39.9521628840083
651,1842,50645,Eastbound E 41 Ave @ Prince Albert St,BUS ZN,49.232764,-123.087361,3771,31.454242728843784
1509,1843,51497,Eastbound W King Edward Ave @ Quesnel Dr,BUS ZN,49.249874,-123.172537,689,30.59253860638375
659,1844,50652,Northbound Victoria Dr @ E 41 Ave,BUS ZN,49.233152,-123.065403,4767,46.06324294311658
11524,1845,60980,Southbound Granville St @ W Georgia St,BUS ZN,49.28266,-123.117951,2579,22.088118758585267
11525,1846,60993,Northbound Granville St @ Dunsmuir St,BUS ZN,49.283461,-123.116549,2635,20.710469105512466
11526,1847,50526,Southbound Granville St @ W Pender St,BUS ZN,49.284039,-123.115939,2635,57.338886842707076
11527,1848,50034,Northbound Granville St @ W Hastings St,BUS ZN,49.285553,-123.11335,2725,45.8311819166261
11521,1849,50822,Northbound Fraser St @ E 60 Ave,BUS ZN,49.215947,-123.090881,3633,36.57596325802516
11522,1850,61292,Southbound Granville St @ Robson St,BUS ZN,49.28172,-123.119373,2515,51.274410835900554
11529,1851,61518,Westbound E Pender St @ Main St,BUS ZN,49.280462,-123.100263,3289,43.71090484828113
10638,1852,51966,Eastbound W 49 Ave @ Tisdall St,BUS ZN,49.226174,-123.120295,2455,41.36888655616773
1297,1853,51286,Southbound Clark Dr @ Grant St,BUS ZN,49.271208,-123.077466,4227,34.37805883300419
995,1854,50986,Southbound Cambie St @ W 54 Ave,BUS ZN,49.221502,-123.116906,2623,32.779705363858405
994,1855,50985,Langara-49th Station @ Bay 4,BUS ZN,49.225846,-123.116731,2627,34.52189146082234
997,1856,50988,Southbound Cambie St @ W 59 Ave,BUS ZN,49.216483,-123.117102,2618,53.57253330022182
996,1857,50987,Southbound Cambie St @ W 57 Ave,BUS ZN,49.218787,-123.117011,2620,34.445407222680174
992,1858,50983,Southbound Cambie St @ W 45 Ave,BUS ZN,49.229514,-123.116588,2632,37.9949136279692
9094,1859,58302,Southbound Victoria Dr @ E 38 Ave,BUS ZN,49.235445,-123.065593,4775,26.020782379115197
9097,1860,58312,Northbound Nootka St @ E 29 Ave,BUS ZN,49.244934,-123.041719,5794,49.33775799426762
12641,1861,60423,Eastbound Robson St @ Cardero St,BUS ZN,49.2892,-123.132046,1981,31.050836431399937
4496,1862,54446,Westbound W Georgia St @ Burrard St,BUS ZN,49.284777,-123.121449,2449,47.861477904965305
2936,1863,52905,Eastbound W Hastings St @ Carrall St,BUS ZN,49.281469,-123.104795,3056,33.73028555921368
11095,1865,58129,Rupert Station @ Bay 2,BUS ZN,49.26049,-123.033896,6134,155.59961947290722
11097,1866,50480,Northbound Cambie St @ W 14 Ave,BUS ZN,49.258988,-123.114893,2692,30.26365227375082
11092,1867,51715,Southbound Rupert St @ E 24 Ave,BUS ZN,49.248502,-123.033956,6119,31.642744945955357
11093,1868,51716,Southbound Rupert St @ E 26 Ave,BUS ZN,49.246798,-123.033962,6117,35.110522313930616
11098,1869,52127,Eastbound SW Marine Dr @ W 70 Ave,BUS ZN,49.208502,-123.120741,2475,42.93864224251675
11099,1870,61120,Westbound Midlothian Ave @ Clancy Loranger Way,BUS ZN,49.243313,-123.109291,2900,39.710549302776975
2161,1871,52141,Eastbound SE Marine Dr @ Argyle St,BUS ZN,49.210911,-123.071659,4504,29.207328147121707
731,1872,50724,Northbound Nanaimo St @ E 1st Ave,BUS ZN,49.269899,-123.05646,5203,45.09572804131718
730,1873,50723,Northbound Nanaimo St @ E 4th Ave,BUS ZN,49.266968,-123.056457,5199,22.7841418583906
733,1874,50726,Northbound Nanaimo St @ Charles St,BUS ZN,49.273616,-123.056442,5211,26.46961207474236
2160,1875,52140,Eastbound SE Marine Dr @ Knight St,BUS ZN,49.210925,-123.075122,4302,44.371448850666134
735,1876,50728,Northbound Nanaimo St @ Adanac St,BUS ZN,49.277801,-123.056428,5221,39.01498466157299
737,1877,50730,Westbound E Hastings St @ Nanaimo St,BUS ZN,49.281242,-123.057254,5130,41.992702208062944
738,1878,50731,Westbound E Hastings St @ Templeton Dr,BUS ZN,49.28126,-123.060231,5021,36.636445593778724
2151,1879,52131,Eastbound SW Marine Dr @ Manitoba St,BUS ZN,49.212198,-123.109277,2852,49.39670007052507
2163,1880,52143,Eastbound SE Marine Dr @ Matheson Cres,BUS ZN,49.207971,-123.030512,6246,29.568522957800447
2162,1881,52142,Eastbound SE Marine Dr @ Beatrice St,BUS ZN,49.209995,-123.067396,4658,39.18648544580968
2007,1882,51990,Northbound Tyne St @ E 53 Ave,BUS ZN,49.221556,-123.032245,6186,45.4331838515534
12816,1883,60575,Southbound Alma St @ W 10 Ave,BUS ZN,49.263217,-123.186038,355,30.928941406021234
8563,1884,58249,Joyce Station @ Bay 6,BUS ZN,49.237996,-123.032261,6209,41.989691722529
12812,1886,60571,Eastbound W 4th Ave @ Balaclava St,BUS ZN,49.268359,-123.173351,655,33.94648958522759
12819,1887,60553,Eastbound W 6th Ave @ Alder St,BUS ZN,49.26601,-123.130869,2034,28.009213552353074
12818,1888,60554,Eastbound E 2nd Ave @ Lorne St,BUS ZN,49.268312,-123.099412,3290,35.29878034757523
8569,1889,58087,Northbound Commercial Dr @ E 6th Ave,BUS ZN,49.265331,-123.069596,4566,29.861824041017524
12548,1890,60307,Broadway-City Hall Station @ Bay 3,BUS ZN,49.261616,-123.115153,2696,72.40627065870311
1616,1891,51604,Southbound Rupert St @ School Ave,BUS ZN,49.234833,-123.04321,5773,65.00962147022165
1566,1892,51554,Westbound E 22 Ave @ Anzio Dr,BUS ZN,49.250701,-123.028964,6332,33.72388011560507
115,1893,50115,Westbound W 16 Ave @ Mackenzie St,BUS ZN,49.257839,-123.170777,732,36.61454919681244
114,1894,50114,Westbound W 16 Ave @ Macdonald St,BUS ZN,49.257816,-123.168896,775,40.445881232561156
116,1895,50116,Westbound W 16 Ave @ Balaclava St,BUS ZN,49.257904,-123.17458,641,23.784726823029978
111,1896,50111,Southbound Macdonald St @ W 11 Ave,BUS ZN,49.261885,-123.16835,797,46.414382410287985
110,1897,50110,Southbound Macdonald St @ W Broadway,BUS ZN,49.264268,-123.168373,794,27.423715961040287
113,1898,50113,Southbound Macdonald St @ W 16 Ave,BUS ZN,49.257315,-123.168496,778,27.02527730449542
112,1899,50112,Southbound Macdonald St @ W 13 Ave,BUS ZN,49.260226,-123.168421,785,28.32701551440513
119,1900,50119,Southbound Macdonald St @ W 21 Ave,BUS ZN,49.253375,-123.16787,815,35.87959013856996
12805,1901,60567,Eastbound W Georgia St @ Burrard St,BUS ZN,49.284667,-123.121679,2449,50.87559499730918
10553,1902,50408,Northbound Seymour St @ W Hastings St,BUS ZN,49.28481,-123.112535,2765,28.830326002429278
11500,1904,61150,Eastbound E 33 Ave @ Main St,BUS ZN,49.240435,-123.101853,3196,28.57700879645495
9131,1910,58704,Westbound W Georgia St @ Bute St,BUS ZN,49.287499,-123.125666,2283,51.00323274116067
9136,1911,58135,Southbound Granville St @ W Broadway,BUS ZN,49.263073,-123.138707,1719,50.42932640527142
11179,1912,51718,Southbound Rupert St @ Price St,BUS ZN,49.243917,-123.034741,6103,36.80684520624108
1568,1913,51556,Westbound E 22 Ave @ Windermere St,BUS ZN,49.250669,-123.036911,6030,29.52029081346764
1298,1914,51287,Southbound Clark Dr @ E 1st Ave,BUS ZN,49.268967,-123.077555,4223,27.887748555130543
1299,1915,51288,Southbound Clark Dr @ E 3rd Ave,BUS ZN,49.267558,-123.077527,4222,33.968349788903026
1292,1916,51281,Eastbound Prior St @ Campbell Ave,BUS ZN,49.276442,-123.084506,3884,34.51179153643594
1293,1917,51282,Eastbound Venables St @ Glen Dr,BUS ZN,49.276727,-123.080955,4045,30.450443421056544
1290,1918,51279,Eastbound Prior St @ Princess Ave,BUS ZN,49.276551,-123.091207,3611,34.02313047581824
1291,1919,51280,Eastbound Prior St @ Hawks Ave,BUS ZN,49.276481,-123.087659,3791,23.624727723139774
1296,1920,51285,Southbound Clark Dr @ William St,BUS ZN,49.27378,-123.07742,4231,29.74100926490922
1294,1921,51283,Eastbound Venables St @ Vernon Dr,BUS ZN,49.276697,-123.07825,4178,25.44884817778594
1295,1922,51284,Southbound Clark Dr @ Parker St,BUS ZN,49.275523,-123.077375,4235,37.26380192705887
